3808.000,3306.5982,S,06418.1910,W,1,07,1.3,429.0,M,21.4,M,,0000*5A
$GPGSA,A,3,18,29,25,26,31,28,23,,,,,,3.0,1.3,2.7*3E
$GPRMC,143808.000,A,3306.5982,S,06418.1910,W,2.48,320.70,121124,,,A*68
$GPGGA,143809.000,3306.5977,S,06418.1914,W,1,07,1.3,428.9,M,21.4,M,,0000*5D
$GPGSA,A,3,18,29,25,26,31,28,23,,,,,,3.0,1.3,2.7*3E
$GPRMC,143809.000,A,3306.5977,S,06418.1914,W,2.51,319.56,121124,,,A*61
$GPGGA,143810.000,3306.5972,S,06418.1920,W,1,07,1.3,428.8,M,21.4,M,,0000*56
$GPGSA,A,3,18,29,25,26,31,28,23,,,,,,3.0,1.3,2.7*3E
$GPRMC,143810.000,A,3306.5972,S,06418.1920,W,2.40,321.60,121124,,,A*65
$GPGGA,143811.000,3306.5966,S,06418.1924,W,1,07,1.3,428.9,M,21.4,M,,0000*57
$GPGSA,A,3,18,29,25,26,31,28,23,,,,,,3.0,1.3,2.7*3E
$GPRMC,143811.000,A,3306.5966,S,06418.1924,W,2.46,325.79,121124,,,A*6F
$GPGGA,143812.000,3306.5960,S,06418.1928,W,1,07,1.3,428.9,M,21.4,M,,0000*5E
$GPGSA,A,3,18,29,25,26,31,28,23,,,,,,3.0,1.3,2.7*3E
$GPGSV,3,1,12,18,81,275,38,29,49,132,20,25,44,039,17,26,40,227,29*70
$GPGSV,3,2,12,31,32,264,31,28,31,304,29,23,24,013,23,16,72,021,*7B
$GPGSV,3,3,12,24,67,195,,32,63,199,,27,16,068,,17,15,087,*74
$GPRMC,143812.000,A,3306.5960,S,06418.1928,W,2.46,331.15,121124,,,A*69
$GPGGA,143813.000,3306.5954,S,06418.1930,W,1,07,1.3,428.8,M,21.4,M,,0000*50
$GPGSA,A,3,18,29,25,26,31,28,23,,,,,,3.0,1.3,2.7*3E
$GPRMC,143813.000,A,3306.5954,S,06418.1930,W,2.43,337.07,121124,,,A*66
$GPGGA,143814.000,3306.5947,S,06418.1932,W,1,07,1.3,429.0,M,21.4,M,,0000*5E
$GPGSA,A,3,18,29,25,26,31,28,23,,,,,,3.0,1.3,2.7*3E
$GPRMC,143814.000,A,3306.5947,S,06418.1932,W,2.58,344.70,121124,,,A*6F
$GPGGA,143815.000,3306.5941,S,06418.1935,W,1,07,1.3,429.2,M,21.4,M,,0000*5C
$GPGSA,A,3,18,29,25,26,31,28,23,,,,,,3.0,1.3,2.7*3E
$GPRMC,143815.000,A,3306.5941,S,06418.1935,W,2.68,347.31,121124,,,A*6A
$GPGGA,143816.000,3306.5934,S,06418.1936,W,1,07,1.3,429.3,M,21.4,M,,0000*5F
$GPGSA,A,3,18,29,25,26,31,28,23,,,,,,3.0,1.3,2.7*3E
$GPRMC,143816.000,A,3306.5934,S,06418.1936,W,2.71,354.85,121124,,,A*6D
$GPGGA,143817.000,3306.5927,S,06418.1937,W,1,07,1.3,429.5,M,21.4,M,,0000*5B
$GPGSA,A,3,18,29,25,26,31,28,23,,,,,,3.0,1.3,2.7*3E
$GPGSV,3,1,12,18,81,275,33,29,49,132,22,25,44,039,29,26,40,227,30*7C
$GPGSV,3,2,12,31,32,264,26,28,31,304,30,23,24,013,26,16,72,021,*70
$GPGSV,3,3,12,24,67,195,,32,63,199,,27,16,068,,17,15,087,*74
$GPRMC,143817.000,A,3306.5927,S,06418.1937,W,2.63,0.84,121124,,,A*6F
$GPGGA,143818.000,3306.5920,S,06418.1936,W,1,07,1.3,429.5,M,21.4,M,,0000*52
$GPGSA,A,3,18,29,25,26,31,28,23,,,,,,3.0,1.3,2.7*3E
$GPRMC,143818.000,A,3306.5920,S,06418.1936,W,2.55,2.79,121124,,,A*63
$GPGGA,143819.000,3306.5913,S,06418.1936,W,1,07,1.3,429.5,M,21.4,M,,0000*53
$GPGSA,A,3,18,29,25,26,31,28,23,,,,,,3.0,1.3,2.7*3E
$GPRMC,143819.000,A,3306.5913,S,06418.1936,W,2.49,3.29,121124,,,A*6B
$GPGGA,143820.000,3306.5907,S,06418.1936,W,1,07,1.3,429.6,M,21.4,M,,0000*5F
$GPGSA,A,3,18,29,25,26,31,28,23,,,,,,3.0,1.3,2.7*3E
$GPRMC,143820.000,A,3306.5907,S,06418.1936,W,2.66,3.42,121124,,,A*64
$GPGGA,143821.000,3306.5900,S,06418.1936,W,1,07,1.3,429.7,M,21.4,M,,0000*58
$GPGSA,A,3,18,29,25,26,31,28,23,,,,,,3.0,1.3,2.7*3E
$GPRMC,143821.000,A,3306.5900,S,06418.1936,W,2.50,4.20,121124,,,A*64
$GPGGA,143822.000,3306.5893,S,06418.1936,W,1,07,1.3,429.8,M,21.4,M,,0000*5F
$GPGSA,A,3,18,29,25,26,31,28,23,,,,,,3.0,1.3,2.7*3E
$GPGSV,3,1,12,18,81,275,34,29,49,132,27,25,44,039,29,26,40,227,30*7E
$GPGSV,3,2,12,31,32,264,26,28,31,304,30,23,24,013,26,16,72,021,*70
$GPGSV,3,3,12,24,67,195,,32,63,199,,27,16,068,,17,15,087,*74
$GPRMC,143822.000,A,3306.5893,S,06418.1936,W,2.65,4.09,121124,,,A*61
$GPGGA,143823.000,3306.5886,S,06418.1936,W,1,07,1.3,429.9,M,21.4,M,,0000*5B
$GPGSA,A,3,18,29,25,26,31,28,23,,,,,,3.0,1.3,2.7*3E
$GPRMC,143823.000,A,3306.5886,S,06418.1936,W,2.50,5.15,121124,,,A*6E
$GPGGA,143824.000,3306.5879,S,06418.1935,W,1,07,1.3,429.9,M,21.4,M,,0000*5F
$GPGSA,A,3,18,29,25,26,31,28,23,,,,,,3.0,1.3,2.7*3E
$GPRMC,143824.000,A,3306.5879,S,06418.1935,W,2.35,6.09,121124,,,A*67
$GPGGA,143825.000,3306.5873,S,06418.1934,W,1,07,1.3,429.8,M,21.4,M,,0000*54
$GPGSA,A,3,18,29,25,26,31,28,23,,,,,,3.0,1.3,2.7*3E
$GPRMC,143825.000,A,3306.5873,S,06418.1934,W,2.29,7.29,121124,,,A*63
$GPGGA,143826.000,3306.5867,S,06418.1933,W,1,07,1.3,429.9,M,21.4,M,,0000*54
$GPGSA,A,3,18,29,25,26,31,28,23,,,,,,3.0,1.3,2.7*3E
$GPRMC,143826.000,A,3306.5867,S,06418.1933,W,2.24,7.02,121124,,,A*66
$GPGGA,143827.000,3306.5861,S,06418.1929,W,1,07,1.3,429.9,M,21.4,M,,0000*58
$GPGSA,A,3,18,29,25,26,31,28,23,,,,,,3.0,1.3,2.7*3E
$GPGSV,3,1,12,18,81,275,34,29,49,132,24,25,44,039,27,26,40,227,30*73
$GPGSV,3,2,12,31,32,264,26,28,31,304,21,23,24,013,28,16,72,021,*7E
$GPGSV,3,3,12,24,67,195,,32,63,199,,27,16,068,,17,15,087,*74
$GPRMC,143827.000,A,3306.5861,S,06418.1929,W,2.45,11.77,121124,,,A*58
$GPGGA,143828.000,3306.5857,S,06418.1924,W,1,07,1.3,430.0,M,21.4,M,,0000*5E
$GPGSA,A,3,18,29,25,26,31,28,23,,,,,,3.0,1.3,2.7*3E
$GPRMC,143828.000,A,3306.5857,S,06418.1924,W,2.37,17.47,121124,,,A*5F
$GPGGA,143829.000,3306.5852,S,06418.1920,W,1,07,1.3,429.8,M,21.4,M,,0000*5E
$GPGSA,A,3,18,29,25,26,31,28,23,,,,,,3.0,1.3,2.7*3E
$GPRMC,143829.000,A,3306.5852,S,06418.1920,W,2.20,21.80,121124,,,A*57
$GPGGA,143830.000,3306.5847,S,06418.1918,W,1,07,1.3,429.9,M,21.4,M,,0000*58
$GPGSA,A,3,18,29,25,26,31,28,23,,,,,,3.0,1.3,2.7*3E
$GPRMC,143830.000,A,3306.5847,S,06418.1918,W,2.23,22.85,121124,,,A*55
$GPGGA,143831.000,3306.5841,S,06418.1914,W,1,07,1.3,429.9,M,21.4,M,,0000*53
$GPGSA,A,3,18,29,25,26,31,28,23,,,,,,3.0,1.3,2.7*3E
$GPRMC,143831.000,A,3306.5841,S,06418.1914,W,2.42,23.97,121124,,,A*5B
$GPGGA,143832.000,3306.5836,S,06418.1911,W,1,07,1.3,430.0,M,21.4,M,,0000*54
$GPGSA,A,3,18,29,25,26,31,28,23,,,,,,3.0,1.3,2.7*3E
$GPGSV,3,1,12,18,81,275,34,29,49,132,24,25,44,039,34,26,40,227,29*79
$GPGSV,3,2,12,31,32,264,26,28,31,304,24,23,24,013,27,16,72,021,*74
$GPGSV,3,3,12,24,67,195,,32,63,199,,27,16,068,,17,15,087,*74
$GPRMC,143832.000,A,3306.5836,S,06418.1911,W,2.44,24.68,121124,,,A*5C
$GPGGA,143833.000,3306.5831,S,06418.1907,W,1,07,1.3,430.0,M,21.4,M,,0000*55
$GPGSA,A,3,18,29,25,26,31,28,23,,,,,,3.0,1.3,2.7*3E
$GPRMC,143833.000,A,3306.5831,S,06418.1907,W,2.28,26.56,121124,,,A*58
$GPGGA,143834.000,3306.5825,S,06418.1904,W,1,07,1.3,430.0,M,21.4,M,,0000*54
$GPGSA,A,3,18,29,25,26,31,28,23,,,,,,3.0,1.3,2.7*3E
$GPRMC,143834.000,A,3306.5825,S,06418.1904,W,2.36,27.55,121124,,,A*54
$GPGGA,143835.000,3306.5819,S,06418.1900,W,1,07,1.3,430.1,M,21.4,M,,0000*5F
$GPGSA,A,3,18,29,25,26,31,28,23,,,,,,3.0,1.3,2.7*3E
$GPRMC,143835.000,A,3306.5819,S,06418.1900,W,2.47,30.46,121124,,,A*5C
$GPGGA,143836.000,3306.5812,S,06418.1897,W,1,07,1.3,430.1,M,21.4,M,,0000*58
$GPGSA,A,3,18,29,25,26,31,28,23,,,,,,3.0,1.3,2.7*3E
$GPRMC,143836.000,A,3306.5812,S,06418.1897,W,2.31,29.26,121124,,,A*54
$GPGGA,143837.000,3306.5806,S,06418.1895,W,1,07,1.3,430.2,M,21.4,M,,0000*5D
$GPGSA,A,3,18,29,25,26,31,28,23,,,,,,3.0,1.3,2.7*3E
$GPGSV,3,1,12,18,81,275,34,29,49,132,23,25,44,039,34,26,40,227,29*7E
$GPGSV,3,2,12,31,32,264,27,28,31,304,23,23,24,013,27,16,72,021,*72
$GPGSV,3,3,12,24,67,195,,32,63,199,,27,16,068,,17,15,087,*74
$GPRMC,143837.000,A,3306.5806,S,06418.1895,W,2.20,27.62,121124,,,A*5C
$GPGGA,143838.000,3306.5801,S,06418.1891,W,1,07,1.3,430.2,M,21.4,M,,0000*51
$GPGSA,A,3,18,29,25,26,31,28,23,,,,,,3.0,1.3,2.7*3E
$GPRMC,143838.000,A,3306.5801,S,06418.1891,W,2.32,27.70,121124,,,A*50
$GPGGA,143836.000,3306.5795,S,06418.1889,W,1,07,1.3,430.2,M,21.4,M,,0000*54
$GPGSA,A,3,18,29,25,26,31,28,23,,,,,,3.0,1.3,2.7*3E
$GPRMC,143836.000,A,3306.5795,S,06418.1889,W,2.36,25.98,121124,,,A*55
$GPGGA,143837.000,3306.5787,S,06418.1887,W,1,07,1.3,430.2,M,21.4,M,,0000*58
$GPGSA,A,3,18,29,25,26,31,28,23,,,,,,3.0,1.3,2.7*3E
$GPRMC,143837.000,A,3306.5787,S,06418.1887,W,2.43,24.52,121124,,,A*5C
$GPGGA,143838.000,3306.5781,S,06418.1885,W,1,07,1.3,430.1,M,21.4,M,,0000*50
$GPGSA,A,3,18,29,25,26,31,28,23,,,,,,3.0,1.3,2.7*3E
$GPRMC,143838.000,A,3306.5781,S,06418.1885,W,2.33,24.13,121124,,,A*55
$GPGGA,143839.000,3306.5775,S,06418.1882,W,1,07,1.3,430.1,M,21.4,M,,0000*5D
$GPGSA,A,3,18,29,25,26,31,28,23,,,,,,3.0,1.3,2.7*3E
$GPGSV,3,1,12,18,81,275,34,29,49,132,21,25,44,039,34,26,40,227,25*70
$GPGSV,3,2,12,31,32,264,27,28,31,304,23,23,24,013,27,16,72,021,*72
$GPGSV,3,3,12,24,67,195,,32,63,199,,27,16,068,,17,15,087,*74
$GPRMC,143839.000,A,3306.5775,S,06418.1882,W,2.29,25.12,121124,,,A*53
$GPGGA,143840.000,3306.5769,S,06418.1879,W,1,07,1.3,430.1,M,21.4,M,,0000*5A
$GPGSA,A,3,18,29,25,26,31,28,23,,,,,,3.0,1.3,2.7*3E
$GPRMC,143840.000,A,3306.5769,S,06418.1879,W,2.19,25.75,121124,,,A*56
$GPGGA,143841.000,3306.5763,S,06418.1877,W,1,07,1.3,430.1,M,21.4,M,,0000*5F
$GPGSA,A,3,18,29,25,26,31,28,23,,,,,,3.0,1.3,2.7*3E
$GPRMC,143841.000,A,3306.5763,S,06418.1877,W,2.23,24.64,121124,,,A*5B
$GPGGA,143842.000,3306.5757,S,06418.1875,W,1,07,1.3,430.1,M,21.4,M,,0000*59
$GPGSA,A,3,18,29,25,26,31,28,23,,,,,,3.0,1.3,2.7*3E
$GPRMC,143842.000,A,3306.5757,S,06418.1875,W,2.28,24.90,121124,,,A*5D
$GPGGA,143843.000,3306.5751,S,06418.1871,W,1,07,1.3,430.0,M,21.4,M,,0000*5B
$GPGSA,A,3,18,29,25,26,31,28,23,,,,,,3.0,1.3,2.7*3E
$GPRMC,143843.000,A,3306.5751,S,06418.1871,W,2.48,24.67,121124,,,A*50
$GPGGA,143844.000,3306.5746,S,06418.1868,W,1,07,1.3,429.9,M,21.4,M,,0000*53
$GPGSA,A,3,18,29,25,26,31,28,23,,,,,,3.0,1.3,2.7*3E
$GPGSV,3,1,12,18,81,275,34,29,49,132,24,25,44,039,34,26,40,227,26*76
$GPGSV,3,2,12,31,32,264,28,28,31,304,18,23,24,013,28,16,72,021,*7A
$GPGSV,3,3,12,24,67,195,,32,63,199,,27,16,068,,17,15,087,*74
$GPRMC,143844.000,A,3306.5746,S,06418.1868,W,2.44,23.56,121124,,,A*50
$GPGGA,143845.000,3306.5741,S,06418.1863,W,1,07,1.3,429.9,M,21.4,M,,0000*5E
$GPGSA,A,3,18,29,25,26,31,28,23,,,,,,3.0,1.3,2.7*3E
$GPRMC,143845.000,A,3306.5741,S,06418.1863,W,2.31,25.52,121124,,,A*5D
$GPGGA,143846.000,3306.5735,S,06418.1859,W,1,07,1.3,429.9,M,21.4,M,,0000*57
$GPGSA,A,3,18,29,25,26,31,28,23,,,,,,3.0,1.3,2.7*3E
$GPRMC,143846.000,A,3306.5735,S,06418.1859,W,2.38,27.51,121124,,,A*5C
$GPGGA,143847.000,3306.5730,S,06418.1855,W,1,07,1.3,429.9,M,21.4,M,,0000*5F
$GPGSA,A,3,18,29,25,26,31,28,23,,,,,,3.0,1.3,2.7*3E
$GPRMC,143847.000,A,3306.5730,S,06418.1855,W,2.26,27.54,121124,,,A*5E
$GPGGA,143848.000,3306.5725,S,06418.1852,W,1,07,1.3,429.8,M,21.4,M,,0000*52
$GPGSA,A,3,18,29,25,26,31,28,23,,,,,,3.0,1.3,2.7*3E
$GPRMC,143848.000,A,3306.5725,S,06418.1852,W,2.25,25.77,121124,,,A*52
$GPGGA,143849.000,3306.5718,S,06418.1850,W,1,06,1.4,429.8,M,21.4,M,,0000*59
$GPGSA,A,3,18,29,25,26,31,23,,,,,,,3.1,1.4,2.7*32
$GPGSV,3,1,12,18,81,275,34,29,49,132,24,25,44,039,30,26,40,227,29*7D
$GPGSV,3,2,12,31,32,264,20,23,24,013,19,28,31,304,14,16,72,021,*7C
$GPGSV,3,3,12,24,67,195,,32,63,199,,27,16,068,,17,15,087,*74
$GPRMC,143849.000,A,3306.5718,S,06418.1850,W,2.40,22.15,121124,,,A*5F
$GPGGA,143850.000,3306.5712,S,06418.1848,W,1,07,1.3,429.7,M,21.4,M,,0000*5B
$GPGSA,A,3,18,29,25,26,31,28,23,,,,,,3.0,1.3,2.7*3E
$GPRMC,143850.000,A,3306.5712,S,06418.1848,W,2.33,20.54,121124,,,A*57
$GPGGA,143851.000,3306.5707,S,06418.1844,W,1,07,1.3,429.7,M,21.4,M,,0000*52
$GPGSA,A,3,18,29,25,26,31,28,23,,,,,,3.0,1.3,2.7*3E
$GPRMC,143851.000,A,3306.5707,S,06418.1844,W,2.31,22.44,121124,,,A*5F
$GPGGA,143852.000,3306.5700,S,06418.1843,W,1,07,1.3,429.8,M,21.4,M,,0000*5E
$GPGSA,A,3,18,29,25,26,31,28,23,,,,,,3.0,1.3,2.7*3E
$GPRMC,143852.000,A,3306.5700,S,06418.1843,W,2.36,21.91,121124,,,A*50
$GPGGA,143853.000,3306.5693,S,06418.1841,W,1,07,1.3,429.8,M,21.4,M,,0000*56
$GPGSA,A,3,18,29,25,26,31,28,23,,,,,,3.0,1.3,2.7*3E
$GPRMC,143853.000,A,3306.5693,S,06418.1841,W,2.44,20.75,121124,,,A*56
$GPGGA,143854.000,3306.5686,S,06418.1838,W,1,07,1.3,429.9,M,21.4,M,,0000*5A
$GPGSA,A,3,18,29,25,26,31,28,23,,,,,,3.0,1.3,2.7*3E
$GPGSV,3,1,12,18,81,275,34,29,49,132,24,25,44,039,31,26,40,227,28*7D
$GPGSV,3,2,12,31,32,264,25,28,31,304,20,23,24,013,21,16,72,021,*75
$GPGSV,3,3,12,24,67,195,,32,63,199,,27,16,068,,17,15,087,*74
$GPRMC,143854.000,A,3306.5686,S,06418.1838,W,2.30,22.31,121124,,,A*5A
$GPGGA,143855.000,3306.5680,S,06418.1835,W,1,07,1.3,429.9,M,21.4,M,,0000*50
$GPGSA,A,3,18,29,25,26,31,28,23,,,,,,3.0,1.3,2.7*3E
$GPRMC,143855.000,A,3306.5680,S,06418.1835,W,2.39,25.42,121124,,,A*5A
$GPGGA,143856.000,3306.5673,S,06418.1832,W,1,07,1.3,430.0,M,21.4,M,,0000*59
$GPGSA,A,3,18,29,25,26,31,28,23,,,,,,3.0,1.3,2.7*3E
$GPRMC,143856.000,A,3306.5673,S,06418.1832,W,2.61,26.01,121124,,,A*5B
$GPGGA,143857.000,3306.5667,S,06418.1828,W,1,07,1.3,430.0,M,21.4,M,,0000*56
$GPGSA,A,3,18,29,25,26,31,28,23,,,,,,3.0,1.3,2.7*3E
$GPRMC,143857.000,A,3306.5667,S,06418.1828,W,2.48,29.51,121124,,,A*55
$GPGGA,143858.000,3306.5662,S,06418.1823,W,1,07,1.3,430.1,M,21.4,M,,0000*56
$GPGSA,A,3,18,29,25,26,31,28,23,,,,,,3.0,1.3,2.7*3E
$GPRMC,143858.000,A,3306.5662,S,06418.1823,W,2.34,33.18,121124,,,A*59
$GPGGA,143859.000,3306.5657,S,06418.1817,W,1,07,1.3,430.2,M,21.4,M,,0000*55
$GPGSA,A,3,18,29,25,26,31,28,23,,,,,,3.0,1.3,2.7*3E
$GPGSV,3,1,12,18,82,265,33,29,48,130,25,25,42,039,32,26,41,227,28*7E
$GPGSV,3,2,12,31,31,265,27,28,30,305,23,23,25,014,29,16,73,024,*7C
$GPGSV,3,3,12,24,67,192,,32,64,197,,27,17,069,,17,15,088,*75
$GPRMC,143859.000,A,3306.5657,S,06418.1817,W,2.70,38.12,121124,,,A*58
$GPGGA,143900.000,3306.5653,S,06418.1811,W,1,07,1.3,430.3,M,21.4,M,,0000*5B
$GPGSA,A,3,18,29,25,26,31,28,23,,,,,,3.0,1.3,2.7*3E
$GPRMC,143900.000,A,3306.5653,S,06418.1811,W,2.47,37.54,121124,,,A*5E
$GPGGA,143901.000,3306.5647,S,06418.1808,W,1,07,1.3,430.3,M,21.4,M,,0000*57
$GPGSA,A,3,18,29,25,26,31,28,23,,,,,,3.0,1.3,2.7*3E
$GPRMC,143901.000,A,3306.5647,S,06418.1808,W,2.17,33.00,121124,,,A*52
$GPGGA,143902.000,3306.5640,S,06418.1805,W,1,07,1.3,430.4,M,21.4,M,,0000*59
$GPGSA,A,3,18,29,25,26,31,28,23,,,,,,3.0,1.3,2.7*3E
$GPRMC,143902.000,A,3306.5640,S,06418.1805,W,2.52,28.18,121124,,,A*59
$GPGGA,143903.000,3306.5635,S,06418.1801,W,1,07,1.3,430.3,M,21.4,M,,0000*59
$GPGSA,A,3,18,29,25,26,31,28,23,,,,,,3.0,1.3,2.7*3E
$GPRMC,143903.000,A,3306.5635,S,06418.1801,W,2.28,28.31,121124,,,A*58
$GPGGA,143904.000,3306.5629,S,06418.1798,W,1,07,1.3,430.2,M,21.4,M,,0000*5D
$GPGSA,A,3,18,29,25,26,31,28,23,,,,,,3.0,1.3,2.7*3E
$GPGSV,3,1,12,18,82,265,33,29,48,130,24,25,42,039,32,26,41,227,28*7F
$GPGSV,3,2,12,31,31,265,27,28,30,305,23,23,25,014,26,16,73,024,*73
$GPGSV,3,3,12,24,67,192,,32,64,197,,27,17,069,,17,15,088,*75
$GPRMC,143904.000,A,3306.5629,S,06418.1798,W,2.52,27.73,121124,,,A*59
$GPGGA,143905.000,3306.5623,S,06418.1794,W,1,07,1.3,430.2,M,21.4,M,,0000*5A
$GPGSA,A,3,18,29,25,26,31,28,23,,,,,,3.0,1.3,2.8*31
$GPRMC,143905.000,A,3306.5623,S,06418.1794,W,2.67,24.43,121124,,,A*58
$GPGGA,143906.000,3306.5615,S,06418.1792,W,1,07,1.3,430.2,M,21.4,M,,0000*5A
$GPGSA,A,3,18,29,25,26,31,28,23,,,,,,3.0,1.3,2.8*31
$GPRMC,143906.000,A,3306.5615,S,06418.1792,W,2.74,20.28,121124,,,A*53
$GPGGA,143907.000,3306.5608,S,06418.1789,W,1,07,1.3,430.1,M,21.4,M,,0000*5E
$GPGSA,A,3,18,29,25,26,31,28,23,,,,,,3.0,1.3,2.8*31
$GPRMC,143907.000,A,3306.5608,S,06418.1789,W,2.60,19.19,121124,,,A*59
$GPGGA,143908.000,3306.5603,S,06418.1786,W,1,07,1.3,430.2,M,21.4,M,,0000*56
$GPGSA,A,3,18,29,25,26,31,28,23,,,,,,3.0,1.3,2.8*31
$GPRMC,143908.000,A,3306.5603,S,06418.1786,W,2.24,20.36,121124,,,A*55
$GPGGA,143909.000,3306.5597,S,06418.1783,W,1,07,1.3,430.2,M,21.4,M,,0000*5C
$GPGSA,A,3,18,29,25,26,31,28,23,,,,,,3.0,1.3,2.8*31
$GPGSV,3,1,12,18,82,265,28,29,48,130,25,25,42,039,36,26,41,227,28*70
$GPGSV,3,2,12,31,31,265,27,28,30,305,23,23,25,014,31,16,73,024,*75
$GPGSV,3,3,12,24,67,192,,32,64,197,,27,17,069,,17,15,088,*75
$GPRMC,143909.000,A,3306.5597,S,06418.1783,W,2.14,20.69,121124,,,A*56
$GPGGA,143910.000,3306.5592,S,06418.1781,W,1,07,1.3,430.3,M,21.4,M,,0000*52
$GPGSA,A,3,18,29,25,26,31,28,23,,,,,,3.0,1.3,2.8*31
$GPRMC,143910.000,A,3306.5592,S,06418.1781,W,2.08,20.46,121124,,,A*59
$GPGGA,143911.000,3306.5585,S,06418.1779,W,1,07,1.3,430.3,M,21.4,M,,0000*52
$GPGSA,A,3,18,29,25,26,31,28,23,,,,,,3.0,1.3,2.8*31
$GPRMC,143911.000,A,3306.5585,S,06418.1779,W,2.27,22.18,121124,,,A*5D
$GPGGA,143912.000,3306.5579,S,06418.1776,W,1,07,1.3,430.4,M,21.4,M,,0000*5A
$GPGSA,A,3,18,29,25,26,31,28,23,,,,,,3.0,1.3,2.8*31
$GPRMC,143912.000,A,3306.5579,S,06418.1776,W,2.38,23.82,121124,,,A*5E
$GPGGA,143913.000,3306.5573,S,06418.1773,W,1,07,1.3,430.5,M,21.4,M,,0000*55
$GPGSA,A,3,18,29,25,26,31,28,23,,,,,,3.0,1.3,2.8*31
$GPRMC,143913.000,A,3306.5573,S,06418.1773,W,2.39,28.20,121124,,,A*52
$GPGGA,143914.000,3306.5567,S,06418.1769,W,1,07,1.3,430.6,M,21.4,M,,0000*5F
$GPGSA,A,3,18,29,25,26,31,28,23,,,,,,3.0,1.3,2.8*31
$GPGSV,3,1,12,18,82,265,32,29,48,130,26,25,42,039,34,26,41,227,28*7A
$GPGSV,3,2,12,31,31,265,28,28,30,305,27,23,25,014,27,16,73,024,*79
$GPGSV,3,3,12,24,67,192,,32,64,197,,27,17,069,,17,15,088,*75
$GPRMC,143914.000,A,3306.5567,S,06418.1769,W,2.45,29.15,121124,,,A*57
$GPGGA,143915.000,3306.5562,S,06418.1765,W,1,07,1.3,430.6,M,21.4,M,,0000*57
$GPGSA,A,3,18,29,25,26,31,28,23,,,,,,3.0,1.3,2.8*31
$GPRMC,143915.000,A,3306.5562,S,06418.1765,W,2.30,30.52,121124,,,A*56
$GPGGA,143916.000,3306.5556,S,06418.1761,W,1,07,1.3,430.5,M,21.4,M,,0000*54
$GPGSA,A,3,18,29,25,26,31,28,23,,,,,,3.0,1.3,2.8*31
$GPRMC,143916.000,A,3306.5556,S,06418.1761,W,2.22,31.36,121124,,,A*56
$GPGGA,143917.000,3306.5550,S,06418.1758,W,1,07,1.3,430.4,M,21.4,M,,0000*58
$GPGSA,A,3,18,29,25,26,31,28,23,,,,,,3.0,1.3,2.8*31
$GPRMC,143917.000,A,3306.5550,S,06418.1758,W,2.35,29.78,121124,,,A*5E
$GPGGA,143918.000,3306.5544,S,06418.1754,W,1,07,1.3,430.4,M,21.4,M,,0000*5E
$GPGSA,A,3,18,29,25,26,31,28,23,,,,,,3.0,1.3,2.8*31
$GPRMC,143918.000,A,3306.5544,S,06418.1754,W,2.48,28.48,121124,,,A*50
$GPGGA,143919.000,3306.5537,S,06418.1751,W,1,07,1.3,430.4,M,21.4,M,,0000*5E
$GPGSA,A,3,18,29,25,26,31,28,23,,,,,,3.0,1.3,2.8*31
$GPGSV,3,1,12,18,82,265,31,29,48,130,25,25,42,039,34,26,41,227,27*75
$GPGSV,3,2,12,31,31,265,29,28,30,305,27,23,25,014,25,16,73,024,*7A
$GPGSV,3,3,12,24,67,192,,32,64,197,,27,17,069,,17,15,088,*75
$GPRMC,143919.000,A,3306.5537,S,06418.1751,W,2.40,27.12,121124,,,A*58
$GPGGA,143920.000,3306.5532,S,06418.1748,W,1,07,1.3,430.6,M,21.4,M,,0000*5B
$GPGSA,A,3,18,29,25,26,31,28,23,,,,,,3.0,1.3,2.8*31
$GPRMC,143920.000,A,3306.5532,S,06418.1748,W,2.31,26.64,121124,,,A*59
$GPGGA,143921.000,3306.5527,S,06418.1744,W,1,07,1.3,430.7,M,21.4,M,,0000*53
$GPGSA,A,3,18,29,25,26,31,28,23,,,,,,3.0,1.3,2.8*31
$GPRMC,143921.000,A,3306.5527,S,06418.1744,W,2.15,27.63,121124,,,A*50
$GPGGA,143922.000,3306.5522,S,06418.1741,W,1,07,1.3,430.7,M,21.4,M,,0000*50
$GPGSA,A,3,18,29,25,26,31,28,23,,,,,,3.0,1.3,2.8*31
$GPRMC,143922.000,A,3306.5522,S,06418.1741,W,1.98,26.99,121124,,,A*51
$GPGGA,143923.000,3306.5516,S,06418.1739,W,1,07,1.3,430.8,M,21.4,M,,0000*56
$GPGSA,A,3,18,29,25,26,31,28,23,,,,,,3.0,1.3,2.8*31
$GPRMC,143923.000,A,3306.5516,S,06418.1739,W,2.40,26.09,121124,,,A*57
$GPGGA,143924.000,3306.5509,S,06418.1736,W,1,07,1.3,430.8,M,21.4,M,,0000*50
$GPGSA,A,3,18,29,25,26,31,28,23,,,,,,3.0,1.3,2.8*31
$GPGSV,3,1,12,18,82,265,32,29,48,130,22,25,42,039,33,26,41,227,27*76
$GPGSV,3,2,12,31,31,265,28,28,30,305,21,23,25,014,26,16,73,024,*7E
$GPGSV,3,3,12,24,67,192,,32,64,197,,27,17,069,,17,15,088,*75
$GPRMC,143924.000,A,3306.5509,S,06418.1736,W,2.44,24.60,121124,,,A*58
$GPGGA,143925.000,3306.5503,S,06418.1733,W,1,07,1.3,430.7,M,21.4,M,,0000*51
$GPGSA,A,3,18,29,25,26,31,28,23,,,,,,3.0,1.3,2.8*31
$GPRMC,143925.000,A,3306.5503,S,06418.1733,W,2.48,24.36,121124,,,A*59
$GPGGA,143926.000,3306.5497,S,06418.1730,W,1,07,1.3,430.7,M,21.4,M,,0000*5D
$GPGSA,A,3,18,29,25,26,31,28,23,,,,,,3.0,1.3,2.8*31
$GPRMC,143926.000,A,3306.5497,S,06418.1730,W,2.32,23.36,121124,,,A*5F
$GPGGA,143927.000,3306.5492,S,06418.1727,W,1,07,1.3,430.6,M,21.4,M,,0000*5E
$GPGSA,A,3,18,29,25,26,31,28,23,,,,,,3.0,1.3,2.8*31
$GPRMC,143927.000,A,3306.5492,S,06418.1727,W,2.35,21.39,121124,,,A*57
$GPGGA,143928.000,3306.5487,S,06418.1723,W,1,07,1.3,430.6,M,21.4,M,,0000*51
$GPGSA,A,3,18,29,25,26,31,28,23,,,,,,3.0,1.3,2.8*31
$GPRMC,143928.000,A,3306.5487,S,06418.1723,W,2.28,20.09,121124,,,A*56
$GPGGA,143929.000,3306.5482,S,06418.1721,W,1,07,1.3,430.6,M,21.4,M,,0000*57
$GPGSA,A,3,18,29,25,26,31,28,23,,,,,,3.0,1.3,2.8*31
$GPGSV,3,1,12,18,82,265,32,29,48,130,22,25,42,039,31,26,41,227,24*77
$GPGSV,3,2,12,31,31,265,23,28,30,305,19,23,25,014,25,16,73,024,*7D
$GPGSV,3,3,12,24,67,192,,32,64,197,,27,17,069,,17,15,088,*75
$GPRMC,143929.000,A,3306.5482,S,06418.1721,W,2.15,21.31,121124,,,A*54
$GPGGA,143930.000,3306.5477,S,06418.1718,W,1,07,1.3,430.8,M,21.4,M,,0000*51
$GPGSA,A,3,18,29,25,26,31,28,23,,,,,,3.0,1.3,2.8*31
$GPRMC,143930.000,A,3306.5477,S,06418.1718,W,1.93,22.12,121124,,,A*53
$GPGGA,143931.000,3306.5471,S,06418.1717,W,1,07,1.3,430.8,M,21.4,M,,0000*59
$GPGSA,A,3,18,29,25,26,31,28,23,,,,,,3.0,1.3,2.8*31
$GPRMC,143931.000,A,3306.5471,S,06418.1717,W,2.01,19.74,121124,,,A*5B
$GPGGA,143932.000,3306.5465,S,06418.1716,W,1,07,1.3,430.8,M,21.4,M,,0000*5E
$GPGSA,A,3,18,29,25,26,31,28,23,,,,,,3.0,1.3,2.8*31
$GPRMC,143932.000,A,3306.5465,S,06418.1716,W,2.18,16.97,121124,,,A*56
$GPGGA,143933.000,3306.5460,S,06418.1715,W,1,07,1.3,430.7,M,21.4,M,,0000*56
$GPGSA,A,3,18,29,25,26,31,28,23,,,,,,3.0,1.3,2.8*31
$GPRMC,143933.000,A,3306.5460,S,06418.1715,W,1.86,15.69,121124,,,A*57
$GPGGA,143934.000,3306.5455,S,06418.1714,W,1,07,1.3,430.7,M,21.4,M,,0000*56
$GPGSA,A,3,18,29,25,26,31,28,23,,,,,,3.0,1.3,2.8*31
$GPGSV,3,1,12,18,82,265,32,29,48,130,22,25,42,039,29,26,41,227,27*7D
$GPGSV,3,2,12,31,31,265,13,28,30,305,20,23,25,014,26,16,73,024,*77
$GPGSV,3,3,12,24,67,192,,32,64,197,,27,17,069,,17,15,088,*75
$GPRMC,143934.000,A,3306.5455,S,06418.1714,W,1.63,14.50,121124,,,A*57
$GPGGA,143935.000,3306.5451,S,06418.1714,W,1,07,1.3,430.6,M,21.4,M,,0000*52
$GPGSA,A,3,18,29,25,26,31,28,23,,,,,,3.0,1.3,2.8*31
$GPRMC,143935.000,A,3306.5451,S,06418.1714,W,1.75,11.70,121124,,,A*52
$GPGGA,143936.000,3306.5447,S,06418.1712,W,1,07,1.3,430.4,M,21.4,M,,0000*52
$GPGSA,A,3,18,29,25,26,31,28,23,,,,,,3.0,1.3,2.8*31
$GPRMC,143936.000,A,3306.5447,S,06418.1712,W,1.65,10.73,121124,,,A*53
$GPGGA,143937.000,3306.5442,S,06418.1713,W,1,07,1.3,430.3,M,21.4,M,,0000*50
$GPGSA,A,3,18,29,25,26,31,28,23,,,,,,3.0,1.3,2.8*31
$GPRMC,143937.000,A,3306.5442,S,06418.1713,W,1.70,8.18,121124,,,A*66
$GPGGA,143938.000,3306.5437,S,06418.1714,W,1,07,1.3,430.3,M,21.4,M,,0000*5A
$GPGSA,A,3,18,29,25,26,31,28,23,,,,,,3.0,1.3,2.8*31
$GPRMC,143938.000,A,3306.5437,S,06418.1714,W,1.66,7.08,121124,,,A*65
$GPGGA,143939.000,3306.5429,S,06418.1715,W,1,07,1.3,430.3,M,21.4,M,,0000*55
$GPGSA,A,3,18,29,25,26,31,28,23,,,,,,3.0,1.3,2.8*31
$GPGSV,3,1,12,18,82,265,31,29,48,130,23,25,42,039,28,26,41,227,22*7B
$GPGSV,3,2,12,31,31,265,20,28,30,305,30,23,25,014,20,16,73,024,*70
$GPGSV,3,3,12,24,67,192,,32,64,197,,27,17,069,,17,15,088,*75
$GPRMC,143939.000,A,3306.5429,S,06418.1715,W,1.93,5.43,121124,,,A*6D
$GPGGA,143940.000,3306.5423,S,06418.1714,W,1,07,1.3,430.3,M,21.4,M,,0000*50
$GPGSA,A,3,18,29,25,26,31,28,23,,,,,,3.0,1.3,2.8*31
$GPRMC,143940.000,A,3306.5423,S,06418.1714,W,2.25,8.48,121124,,,A*60
$GPGGA,143941.000,3306.5417,S,06418.1712,W,1,06,1.4,430.2,M,21.4,M,,0000*57
$GPGSA,A,3,18,29,25,26,31,28,,,,,,,3.4,1.4,3.1*3B
$GPRMC,143941.000,A,3306.5417,S,06418.1712,W,2.18,18.52,121124,,,A*54
$GPGGA,143942.000,3306.5412,S,06418.1709,W,1,07,1.3,430.3,M,21.4,M,,0000*5C
$GPGSA,A,3,18,29,25,26,31,28,23,,,,,,3.0,1.3,2.8*31
$GPRMC,143942.000,A,3306.5412,S,06418.1709,W,2.31,20.59,121124,,,A*53
$GPGGA,143943.000,3306.5407,S,06418.1705,W,1,07,1.3,430.3,M,21.4,M,,0000*55
$GPGSA,A,3,18,29,25,26,31,28,23,,,,,,3.0,1.3,2.8*31
$GPRMC,143943.000,A,3306.5407,S,06418.1705,W,2.26,27.03,121124,,,A*54
$GPGGA,143944.000,3306.5403,S,06418.1700,W,1,07,1.3,430.4,M,21.4,M,,0000*54
$GPGSA,A,3,18,29,25,26,31,28,23,,,,,,3.0,1.3,2.8*31
$GPGSV,3,1,12,18,82,265,31,29,48,130,31,25,42,039,29,26,41,227,19*71
$GPGSV,3,2,12,31,31,265,28,28,30,305,23,23,25,014,19,16,73,024,*70
$GPGSV,3,3,12,24,67,192,,32,64,197,,27,17,069,,17,15,088,*75
$GPRMC,143944.000,A,3306.5403,S,06418.1700,W,2.10,35.11,121124,,,A*57
$GPGGA,143945.000,3306.5398,S,06418.1695,W,1,07,1.3,430.4,M,21.4,M,,0000*5D
$GPGSA,A,3,18,29,25,26,31,28,23,,,,,,3.1,1.3,2.8*30
$GPRMC,143945.000,A,3306.5398,S,06418.1695,W,2.28,42.80,121124,,,A*5D
$GPGGA,143946.000,3306.5395,S,06418.1688,W,1,07,1.3,430.3,M,21.4,M,,0000*58
$GPGSA,A,3,18,29,25,26,31,28,23,,,,,,3.1,1.3,2.8*30
$GPRMC,143946.000,A,3306.5395,S,06418.1688,W,2.25,51.46,121124,,,A*5A
$GPGGA,143947.000,3306.5394,S,06418.1681,W,1,07,1.3,430.2,M,21.4,M,,0000*50
$GPGSA,A,3,18,29,25,26,31,28,23,,,,,,3.1,1.3,2.8*30
$GPRMC,143947.000,A,3306.5394,S,06418.1681,W,2.00,59.44,121124,,,A*5E
$GPGGA,143948.000,3306.5392,S,06418.1675,W,1,07,1.3,430.1,M,21.4,M,,0000*51
$GPGSA,A,3,18,29,25,26,31,28,23,,,,,,3.1,1.3,2.8*30
$GPRMC,143948.000,A,3306.5392,S,06418.1675,W,1.98,69.17,121124,,,A*5B
$GPGGA,143949.000,3306.5392,S,06418.1670,W,1,07,1.3,429.9,M,21.4,M,,0000*55
$GPGSA,A,3,18,29,25,26,31,28,23,,,,,,3.1,1.3,2.8*30
$GPGSV,3,1,12,18,82,265,27,29,48,130,30,25,42,039,29,26,41,227,20*7D
$GPGSV,3,2,12,31,31,265,24,28,30,305,25,23,25,014,19,16,73,024,*7A
$GPGSV,3,3,12,24,67,192,,32,64,197,,27,17,069,,17,15,088,*75
$GPRMC,143949.000,A,3306.5392,S,06418.1670,W,1.88,76.22,121124,,,A*56
$GPGGA,143950.000,3306.5392,S,06418.1664,W,1,07,1.3,429.8,M,21.4,M,,0000*59
$GPGSA,A,3,18,29,25,26,31,28,23,,,,,,3.1,1.3,2.8*30
$GPRMC,143950.000,A,3306.5392,S,06418.1664,W,1.70,82.62,121124,,,A*53
$GPGGA,143951.000,3306.5393,S,06418.1658,W,1,07,1.3,429.8,M,21.4,M,,0000*56
$GPGSA,A,3,18,29,25,26,31,28,23,,,,,,3.1,1.3,2.8*30
$GPRMC,143951.000,A,3306.5393,S,06418.1658,W,1.65,89.22,121124,,,A*57
$GPGGA,143952.000,3306.5394,S,06418.1653,W,1,07,1.3,429.7,M,21.4,M,,0000*56
$GPGSA,A,3,18,29,25,26,31,28,23,,,,,,3.1,1.3,2.8*30
$GPRMC,143952.000,A,3306.5394,S,06418.1653,W,1.55,93.47,121124,,,A*53
$GPGGA,143953.000,3306.5396,S,06418.1648,W,1,07,1.3,429.7,M,21.4,M,,0000*5F
$GPGSA,A,3,18,29,25,26,31,28,23,,,,,,3.1,1.3,2.8*30
$GPRMC,143953.000,A,3306.5396,S,06418.1648,W,1.56,95.85,121124,,,A*51
$GPGGA,143954.000,3306.5396,S,06418.1643,W,1,07,1.3,429.7,M,21.4,M,,0000*53
$GPGSA,A,3,18,29,25,26,31,28,23,,,,,,3.1,1.3,2.8*30
$GPGSV,3,1,12,18,82,265,26,29,48,130,35,25,42,039,21,26,41,227,19*7B
$GPGSV,3,2,12,31,31,265,22,28,30,305,18,23,25,014,20,16,73,024,*78
$GPGSV,3,3,12,24,67,192,,32,64,197,,27,17,069,,17,15,088,*75
$GPRMC,143954.000,A,3306.5396,S,06418.1643,W,1.62,98.25,121124,,,A*5D
$GPGGA,143955.000,3306.5398,S,06418.1638,W,1,07,1.3,429.6,M,21.4,M,,0000*51
$GPGSA,A,3,18,29,25,26,31,28,23,,,,,,3.1,1.3,2.8*30
$GPRMC,143955.000,A,3306.5398,S,06418.1638,W,1.53,100.01,121124,,,A*6A
$GPGGA,143956.000,3306.5400,S,06418.1631,W,1,07,1.3,429.5,M,21.4,M,,0000*5E
$GPGSA,A,3,18,29,25,26,31,28,23,,,,,,3.1,1.3,2.8*30
$GPRMC,143956.000,A,3306.5400,S,06418.1631,W,1.96,101.43,121124,,,A*68
$GPGGA,143957.000,3306.5400,S,06418.1625,W,1,07,1.3,429.4,M,21.4,M,,0000*5B
$GPGSA,A,3,18,29,25,26,31,28,23,,,,,,3.1,1.3,2.8*30
$GPRMC,143957.000,A,3306.5400,S,06418.1625,W,1.50,100.37,121124,,,A*64
$GPGGA,143958.000,3306.5402,S,06418.1621,W,1,07,1.3,429.5,M,21.4,M,,0000*53
$GPGSA,A,3,18,29,25,26,31,28,23,,,,,,3.1,1.3,2.8*30
$GPRMC,143958.000,A,3306.5402,S,06418.1621,W,1.33,102.17,121124,,,A*68
$GPGGA,143959.000,3306.5405,S,06418.1617,W,1,07,1.3,429.5,M,21.4,M,,0000*50
$GPGSA,A,3,18,29,25,26,31,28,23,,,,,,3.1,1.3,2.8*30
$GPGSV,3,1,12,18,82,265,26,29,48,130,34,25,42,039,23,26,41,227,19*78
$GPGSV,3,2,12,31,31,265,22,28,30,305,19,23,25,014,19,16,73,024,*73
$GPGSV,3,3,12,24,67,192,,32,64,197,,27,17,069,,17,15,088,*75
$GPRMC,143959.000,A,3306.5405,S,06418.1617,W,1.31,105.25,121124,,,A*6F
$GPGGA,144000.000,3306.5407,S,06418.1611,W,1,07,1.3,429.5,M,21.4,M,,0000*56
$GPGSA,A,3,18,29,25,26,31,28,23,,,,,,3.1,1.3,2.8*30
$GPRMC,144000.000,A,3306.5407,S,06418.1611,W,1.76,108.17,121124,,,A*66
$GPGGA,144001.000,3306.5412,S,06418.1606,W,1,06,1.4,429.4,M,21.4,M,,0000*52
$GPGSA,A,3,18,29,25,26,31,28,,,,,,,3.4,1.4,3.1*3B
$GPRMC,144001.000,A,3306.5412,S,06418.1606,W,2.00,114.68,121124,,,A*62
$GPGGA,144002.000,3306.5417,S,06418.1600,W,1,07,1.3,429.3,M,21.4,M,,0000*53
$GPGSA,A,3,18,29,25,26,31,28,23,,,,,,3.1,1.3,2.8*30
$GPRMC,144002.000,A,3306.5417,S,06418.1600,W,1.92,121.28,121124,,,A*68
$GPGGA,144003.000,3306.5421,S,06418.1596,W,1,07,1.3,429.3,M,21.4,M,,0000*5B
$GPGSA,A,3,18,29,25,26,31,28,23,,,,,,3.1,1.3,2.8*30
$GPRMC,144003.000,A,3306.5421,S,06418.1596,W,1.72,126.40,121124,,,A*67
$GPGGA,144004.000,3306.5424,S,06418.1590,W,1,06,1.4,429.3,M,21.4,M,,0000*59
$GPGSA,A,3,18,29,25,26,31,28,,,,,,,3.4,1.4,3.1*3B
$GPGSV,3,1,12,18,82,265,25,29,48,130,34,25,42,039,26,26,41,227,18*7F
$GPGSV,3,2,12,31,31,265,21,28,30,305,18,23,25,014,10,16,73,024,*78
$GPGSV,3,3,12,24,67,192,,32,64,197,,27,17,069,,17,15,088,*75
$GPRMC,144004.000,A,3306.5424,S,06418.1590,W,1.89,126.50,121124,,,A*66
$GPGGA,144005.000,3306.5428,S,06418.1583,W,1,06,1.4,429.2,M,21.4,M,,0000*57
$GPGSA,A,3,18,29,25,26,31,28,,,,,,,3.4,1.4,3.1*3B
$GPRMC,144005.000,A,3306.5428,S,06418.1583,W,1.94,124.28,121124,,,A*68
$GPGGA,144006.000,3306.5430,S,06418.1576,W,1,07,1.3,429.3,M,21.4,M,,0000*50
$GPGSA,A,3,18,29,25,26,31,28,23,,,,,,3.1,1.3,2.8*30
$GPRMC,144006.000,A,3306.5430,S,06418.1576,W,2.01,121.42,121124,,,A*6E
$GPGGA,144007.000,3306.5433,S,06418.1568,W,1,07,1.3,429.4,M,21.4,M,,0000*5A
$GPGSA,A,3,18,29,25,26,31,28,23,,,,,,3.1,1.3,2.8*30
$GPRMC,144007.000,A,3306.5433,S,06418.1568,W,2.49,117.82,121124,,,A*66
$GPGGA,144008.000,3306.5435,S,06418.1558,W,1,06,1.4,429.3,M,21.4,M,,0000*51
$GPGSA,A,3,18,29,25,26,31,28,,,,,,,3.4,1.4,3.1*3B
$GPRMC,144008.000,A,3306.5435,S,06418.1558,W,2.62,113.99,121124,,,A*6B
$GPGGA,144009.000,3306.5438,S,06418.1549,W,1,07,1.3,429.3,M,21.4,M,,0000*5B
$GPGSA,A,3,18,29,25,26,31,28,23,,,,,,3.1,1.3,2.8*30
$GPGSV,3,1,12,18,82,265,24,29,48,130,35,25,42,039,31,26,41,227,17*76
$GPGSV,3,2,12,31,31,265,21,28,30,305,17,23,25,014,11,16,73,024,*76
$GPGSV,3,3,12,24,67,192,,32,64,197,,27,17,069,,17,15,088,*75
$GPRMC,144009.000,A,3306.5438,S,06418.1549,W,2.40,113.13,121124,,,A*65
$GPGGA,144010.000,3306.5441,S,06418.1541,W,1,07,1.3,429.2,M,21.4,M,,0000*54
$GPGSA,A,3,18,29,25,26,31,28,23,,,,,,3.1,1.3,2.8*30
$GPRMC,144010.000,A,3306.5441,S,06418.1541,W,2.50,112.04,121124,,,A*6D
$GPGGA,144011.000,3306.5443,S,06418.1532,W,1,07,1.3,429.3,M,21.4,M,,0000*52
$GPGSA,A,3,18,29,25,26,31,28,23,,,,,,3.1,1.3,2.8*30
$GPRMC,144011.000,A,3306.5443,S,06418.1532,W,2.59,108.23,121124,,,A*6D
$GPGGA,144012.000,3306.5444,S,06418.1525,W,1,07,1.3,429.3,M,21.4,M,,0000*50
$GPGSA,A,3,18,29,25,26,31,28,23,,,,,,3.1,1.3,2.8*30
$GPRMC,144012.000,A,3306.5444,S,06418.1525,W,2.47,106.24,121124,,,A*69
$GPGGA,144013.000,3306.5446,S,06418.1516,W,1,07,1.3,429.3,M,21.4,M,,0000*53
$GPGSA,A,3,18,29,25,26,31,28,23,,,,,,3.1,1.3,2.8*30
$GPRMC,144013.000,A,3306.5446,S,06418.1516,W,2.57,105.48,121124,,,A*62
$GPGGA,144014.000,3306.5448,S,06418.1509,W,1,07,1.3,429.3,M,21.4,M,,0000*54
$GPGSA,A,3,18,29,25,26,31,28,23,,,,,,3.1,1.3,2.8*30
$GPGSV,3,1,12,18,82,265,22,29,48,130,36,25,42,039,31,26,41,227,17*73
$GPGSV,3,2,12,31,31,265,22,28,30,305,15,23,25,014,18,16,73,024,*7E
$GPGSV,3,3,12,24,67,192,,32,64,197,,27,17,069,,17,15,088,*75
$GPRMC,144014.000,A,3306.5448,S,06418.1509,W,2.49,109.73,121124,,,A*6E
$GPGGA,144015.000,3306.5452,S,06418.1502,W,1,07,1.3,429.2,M,21.4,M,,0000*54
$GPGSA,A,3,18,29,25,26,31,28,23,,,,,,3.1,1.3,2.8*30
$GPRMC,144015.000,A,3306.5452,S,06418.1502,W,2.43,112.72,121124,,,A*6E
$GPGGA,144016.000,3306.5455,S,06418.1494,W,1,07,1.3,429.3,M,21.4,M,,0000*5F
$GPGSA,A,3,18,29,25,26,31,28,23,,,,,,3.1,1.3,2.8*30
$GPRMC,144016.000,A,3306.5455,S,06418.1494,W,2.52,112.54,121124,,,A*60
$GPGGA,144017.000,3306.5458,S,06418.1486,W,1,07,1.3,429.3,M,21.4,M,,0000*50
$GPGSA,A,3,18,29,25,26,31,28,23,,,,,,3.1,1.3,2.8*30
$GPRMC,144017.000,A,3306.5458,S,06418.1486,W,2.74,112.47,121124,,,A*69
$GPGGA,144018.000,3306.5461,S,06418.1478,W,1,07,1.3,429.4,M,21.4,M,,0000*53
$GPGSA,A,3,18,29,25,26,31,28,23,,,,,,3.1,1.3,2.8*30
$GPRMC,144018.000,A,3306.5461,S,06418.1478,W,2.39,114.45,121124,,,A*60
$GPGGA,144019.000,3306.5463,S,06418.1469,W,1,07,1.3,429.5,M,21.4,M,,0000*51
$GPGSA,A,3,18,29,25,26,31,28,23,,,,,,3.1,1.3,2.8*30
$GPGSV,3,1,12,18,82,265,30,29,48,130,37,25,42,039,30,26,41,227,17*70
$GPGSV,3,2,12,31,31,265,23,28,30,305,20,23,25,014,27,16,73,024,*75
$GPGSV,3,3,12,24,67,192,,32,64,197,,27,17,069,,17,15,088,*75
$GPRMC,144019.000,A,3306.5463,S,06418.1469,W,2.52,115.46,121124,,,A*6C
$GPGGA,144020.000,3306.5466,S,06418.1461,W,1,07,1.3,429.5,M,21.4,M,,0000*56
$GPGSA,A,3,18,29,25,26,31,28,23,,,,,,3.1,1.3,2.8*30
$GPRMC,144020.000,A,3306.5466,S,06418.1461,W,2.13,115.03,121124,,,A*6F
$GPGGA,144021.000,3306.5468,S,06418.1454,W,1,07,1.3,429.5,M,21.4,M,,0000*5F
$GPGSA,A,3,18,29,25,26,31,28,23,,,,,,3.1,1.3,2.8*30
$GPRMC,144021.000,A,3306.5468,S,06418.1454,W,2.02,111.32,121124,,,A*60
$GPGGA,144022.000,3306.5468,S,06418.1448,W,1,07,1.3,429.4,M,21.4,M,,0000*50
$GPGSA,A,3,18,29,25,26,31,28,23,,,,,,3.1,1.3,2.8*30
$GPRMC,144022.000,A,3306.5468,S,06418.1448,W,1.95,108.17,121124,,,A*6C
$GPGGA,144023.000,3306.5469,S,06418.1440,W,1,07,1.3,429.5,M,21.4,M,,0000*59
$GPGSA,A,3,18,29,25,26,31,28,23,,,,,,3.1,1.3,2.8*30
$GPRMC,144023.000,A,3306.5469,S,06418.1440,W,1.92,106.18,121124,,,A*62
$GPGGA,144024.000,3306.5472,S,06418.1432,W,1,07,1.3,429.5,M,21.4,M,,0000*51
$GPGSA,A,3,18,29,25,26,31,28,23,,,,,,3.1,1.3,2.8*30
$GPGSV,3,1,12,18,82,265,23,29,48,130,37,25,42,039,23,26,41,227,22*76
$GPGSV,3,2,12,31,31,265,23,28,30,305,23,23,25,014,20,16,73,024,*71
$GPGSV,3,3,12,24,67,192,,32,64,197,,27,17,069,,17,15,088,*75
$GPRMC,144024.000,A,3306.5472,S,06418.1432,W,2.04,106.99,121124,,,A*6F
$GPGGA,144025.000,3306.5475,S,06418.1423,W,1,07,1.3,429.6,M,21.4,M,,0000*54
$GPGSA,A,3,18,29,25,26,31,28,23,,,,,,3.1,1.3,2.8*30
$GPRMC,144025.000,A,3306.5475,S,06418.1423,W,2.21,107.26,121124,,,A*6B
$GPGGA,144026.000,3306.5478,S,06418.1416,W,1,07,1.3,429.6,M,21.4,M,,0000*5C
$GPGSA,A,3,18,29,25,26,31,28,23,,,,,,3.1,1.3,2.8*30
$GPRMC,144026.000,A,3306.5478,S,06418.1416,W,2.00,109.85,121124,,,A*67
$GPGGA,144027.000,3306.5481,S,06418.1411,W,1,06,1.4,429.6,M,21.4,M,,0000*5A
$GPGSA,A,3,18,29,25,31,28,23,,,,,,,3.2,1.4,2.9*31
$GPRMC,144027.000,A,3306.5481,S,06418.1411,W,2.13,110.16,121124,,,A*67
$GPGGA,144028.000,3306.5484,S,06418.1403,W,1,07,1.3,429.5,M,21.4,M,,0000*56
$GPGSA,A,3,18,29,25,26,31,28,23,,,,,,3.1,1.3,2.8*30
$GPRMC,144028.000,A,3306.5484,S,06418.1403,W,2.37,112.42,121124,,,A*6B
$GPGGA,144029.000,3306.5486,S,06418.1398,W,1,07,1.3,429.3,M,21.4,M,,0000*56
$GPGSA,A,3,18,29,25,26,31,28,23,,,,,,3.1,1.3,2.8*30
$GPGSV,3,1,12,18,82,265,23,29,48,130,33,25,42,039,30,26,41,227,19*78
$GPGSV,3,2,12,31,31,265,24,28,30,305,22,23,25,014,28,16,73,024,*7F
$GPGSV,3,3,12,24,67,192,,32,64,197,,27,17,069,,17,15,088,*75
$GPRMC,144029.000,A,3306.5486,S,06418.1398,W,1.89,114.93,121124,,,A*61
$GPGGA,144030.000,3306.5488,S,06418.1393,W,1,07,1.3,429.2,M,21.4,M,,0000*5A
$GPGSA,A,3,18,29,25,26,31,28,23,,,,,,3.1,1.3,2.8*30
$GPRMC,144030.000,A,3306.5488,S,06418.1393,W,1.71,114.12,121124,,,A*62
$GPGGA,144031.000,3306.5491,S,06418.1386,W,1,07,1.3,429.2,M,21.4,M,,0000*57
$GPGSA,A,3,18,29,25,26,31,28,23,,,,,,3.1,1.3,2.8*30
$GPRMC,144031.000,A,3306.5491,S,06418.1386,W,1.75,113.91,121124,,,A*67
$GPGGA,144032.000,3306.5493,S,06418.1381,W,1,07,1.3,429.2,M,21.4,M,,0000*51
$GPGSA,A,3,18,29,25,26,31,28,23,,,,,,3.1,1.3,2.8*30
$GPRMC,144032.000,A,3306.5493,S,06418.1381,W,1.64,115.53,121124,,,A*69
$GPGGA,144033.000,3306.5496,S,06418.1378,W,1,07,1.3,429.2,M,21.4,M,,0000*53
$GPGSA,A,3,18,29,25,26,31,28,23,,,,,,3.1,1.3,2.8*30
$GPRMC,144033.000,A,3306.5496,S,06418.1378,W,1.28,117.35,121124,,,A*61
$GPGGA,144034.000,3306.5499,S,06418.1374,W,1,07,1.3,429.2,M,21.4,M,,0000*57
$GPGSA,A,3,18,29,25,26,31,28,23,,,,,,3.1,1.3,2.8*30
$GPGSV,3,1,12,18,82,265,23,29,48,130,34,25,42,039,22,26,41,227,20*76
$GPGSV,3,2,12,31,31,265,23,28,30,305,19,23,25,014,20,16,73,024,*78
$GPGSV,3,3,12,24,67,192,,32,64,197,,27,17,069,,17,15,088,*75
$GPRMC,144034.000,A,3306.5499,S,06418.1374,W,1.41,120.18,121124,,,A*61
$GPGGA,144035.000,3306.5502,S,06418.1371,W,1,07,1.3,429.3,M,21.4,M,,0000*51
$GPGSA,A,3,18,29,25,26,31,28,23,,,,,,3.1,1.3,2.8*30
$GPRMC,144035.000,A,3306.5502,S,06418.1371,W,1.53,124.16,121124,,,A*6F
$GPGGA,144036.000,3306.5507,S,06418.1367,W,1,07,1.3,429.3,M,21.4,M,,0000*50
$GPGSA,A,3,18,29,25,26,31,28,23,,,,,,3.1,1.3,2.8*30
$GPRMC,144036.000,A,3306.5507,S,06418.1367,W,1.91,132.57,121124,,,A*62
$GPGGA,144037.000,3306.5511,S,06418.1361,W,1,07,1.3,429.2,M,21.4,M,,0000*51
$GPGSA,A,3,18,29,25,26,31,28,23,,,,,,3.1,1.3,2.8*30
$GPRMC,144037.000,A,3306.5511,S,06418.1361,W,1.80,135.04,121124,,,A*63
$GPGGA,144038.000,3306.5516,S,06418.1358,W,1,07,1.3,429.1,M,21.4,M,,0000*50
$GPGSA,A,3,18,29,25,26,31,28,23,,,,,,3.1,1.3,2.8*30
$GPRMC,144038.000,A,3306.5516,S,06418.1358,W,1.80,137.56,121124,,,A*64
$GPGGA,144039.000,3306.5520,S,06418.1353,W,1,07,1.3,429.1,M,21.4,M,,0000*5F
$GPGSA,A,3,18,29,25,26,31,28,23,,,,,,3.1,1.3,2.8*30
$GPGSV,3,1,12,18,82,265,26,29,48,130,35,25,42,039,31,26,41,227,20*70
$GPGSV,3,2,12,31,31,265,17,28,30,305,18,23,25,014,21,16,73,024,*7F
$GPGSV,3,3,12,24,67,192,,32,64,197,,27,17,069,,17,15,088,*75
$GPRMC,144039.000,A,3306.5520,S,06418.1353,W,1.83,137.30,121124,,,A*68
$GPGGA,144040.000,3306.5523,S,06418.1348,W,1,07,1.3,429.2,M,21.4,M,,0000*5B
$GPGSA,A,3,18,29,25,26,31,28,23,,,,,,3.1,1.3,2.8*30
$GPRMC,144040.000,A,3306.5523,S,06418.1348,W,2.05,135.81,121124,,,A*6A
$GPGGA,144041.000,3306.5527,S,06418.1343,W,1,07,1.3,429.4,M,21.4,M,,0000*53
$GPGSA,A,3,18,29,25,26,31,28,23,,,,,,3.1,1.3,2.8*30
$GPRMC,144041.000,A,3306.5527,S,06418.1343,W,1.97,133.37,121124,,,A*67
$GPGGA,144042.000,3306.5531,S,06418.1336,W,1,07,1.3,429.4,M,21.4,M,,0000*55
$GPGSA,A,3,18,29,25,26,31,28,23,,,,,,3.1,1.3,2.8*30
$GPRMC,144042.000,A,3306.5531,S,06418.1336,W,2.27,130.99,121124,,,A*6E
$GPGGA,144043.000,3306.5535,S,06418.1331,W,1,07,1.3,429.3,M,21.4,M,,0000*50
$GPGSA,A,3,18,29,25,26,31,28,23,,,,,,3.1,1.3,2.8*30
$GPRMC,144043.000,A,3306.5535,S,06418.1331,W,1.72,130.40,121124,,,A*6B
$GPGGA,144044.000,3306.5538,S,06418.1326,W,1,07,1.3,429.4,M,21.4,M,,0000*5B
$GPGSA,A,3,18,29,25,26,31,28,23,,,,,,3.1,1.3,2.8*30
$GPGSV,3,1,12,18,82,265,22,29,48,130,36,25,42,039,31,26,41,227,19*7D
$GPGSV,3,2,12,31,31,265,20,28,30,305,18,23,25,014,26,16,73,024,*7C
$GPGSV,3,3,12,24,67,192,,32,64,197,,27,17,069,,17,15,088,*75
$GPRMC,144044.000,A,3306.5538,S,06418.1326,W,1.73,128.54,121124,,,A*6A
$GPGGA,144045.000,3306.5540,S,06418.1320,W,1,07,1.3,429.2,M,21.4,M,,0000*55
$GPGSA,A,3,18,29,25,26,31,28,23,,,,,,3.1,1.3,2.8*30
$GPRMC,144045.000,A,3306.5540,S,06418.1320,W,1.56,126.09,121124,,,A*63
$GPGGA,144046.000,3306.5542,S,06418.1313,W,1,07,1.3,429.0,M,21.4,M,,0000*56
$GPGSA,A,3,18,29,25,26,31,28,23,,,,,,3.1,1.3,2.8*30
$GPRMC,144046.000,A,3306.5542,S,06418.1313,W,1.84,121.62,121124,,,A*67
$GPGGA,144047.000,3306.5544,S,06418.1306,W,1,07,1.3,429.0,M,21.4,M,,0000*55
$GPGSA,A,3,18,29,25,26,31,28,23,,,,,,3.1,1.3,2.8*30
$GPRMC,144047.000,A,3306.5544,S,06418.1306,W,2.03,119.57,121124,,,A*65
$GPGGA,144048.000,3306.5547,S,06418.1299,W,1,07,1.3,429.0,M,21.4,M,,0000*5E
$GPGSA,A,3,18,29,25,26,31,28,23,,,,,,3.1,1.3,2.8*30
$GPRMC,144048.000,A,3306.5547,S,06418.1299,W,2.27,121.00,121124,,,A*61
$GPGGA,144049.000,3306.5552,S,06418.1294,W,1,07,1.3,429.0,M,21.4,M,,0000*56
$GPGSA,A,3,18,29,25,26,31,28,23,,,,,,3.1,1.3,2.8*30
$GPGSV,3,1,12,18,82,265,24,29,48,130,37,25,42,039,31,26,41,227,21*71
$GPGSV,3,2,12,31,31,265,19,28,30,305,20,23,25,014,26,16,73,024,*7D
$GPGSV,3,3,12,24,67,192,,32,64,197,,27,17,069,,17,15,088,*75
$GPRMC,144049.000,A,3306.5552,S,06418.1294,W,2.16,125.72,121124,,,A*6A
$GPGGA,144050.000,3306.5556,S,06418.1287,W,1,07,1.3,429.0,M,21.4,M,,0000*58
$GPGSA,A,3,18,29,25,26,31,28,23,,,,,,3.1,1.3,2.8*30
$GPRMC,144050.000,A,3306.5556,S,06418.1287,W,2.12,128.34,121124,,,A*6F
$GPGGA,144051.000,3306.5560,S,06418.1283,W,1,07,1.3,429.1,M,21.4,M,,0000*59
$GPGSA,A,3,18,29,25,26,31,28,23,,,,,,3.1,1.3,2.8*30
$GPRMC,144051.000,A,3306.5560,S,06418.1283,W,2.10,133.53,121124,,,A*66
$GPGGA,144052.000,3306.5565,S,06418.1276,W,1,07,1.3,429.0,M,21.4,M,,0000*54
$GPGSA,A,3,18,29,25,26,31,28,23,,,,,,3.1,1.3,2.8*30
$GPRMC,144052.000,A,3306.5565,S,06418.1276,W,2.34,136.11,121124,,,A*6F
$GPGGA,144053.000,3306.5570,S,06418.1269,W,1,07,1.3,428.9,M,21.4,M,,0000*57
$GPGSA,A,3,18,29,25,26,31,28,23,,,,,,3.1,1.3,2.8*30
$GPRMC,144053.000,A,3306.5570,S,06418.1269,W,2.22,137.41,121124,,,A*67
$GPGGA,144054.000,3306.5574,S,06418.1263,W,1,07,1.3,428.8,M,21.4,M,,0000*5F
$GPGSA,A,3,18,29,25,26,31,28,23,,,,,,3.1,1.3,2.8*30
$GPGSV,3,1,12,18,82,265,28,29,48,130,37,25,42,039,31,26,41,227,22*7E
$GPGSV,3,2,12,31,31,265,18,28,30,305,21,23,25,014,24,16,73,024,*7F
$GPGSV,3,3,12,24,67,192,,32,64,197,,27,17,069,,17,15,088,*75
$GPRMC,144054.000,A,3306.5574,S,06418.1263,W,2.31,136.60,121124,,,A*6E
$GPGGA,144055.000,3306.5579,S,06418.1257,W,1,06,1.3,428.7,M,21.4,M,,0000*5A
$GPGSA,A,3,18,29,25,26,28,23,,,,,,,3.2,1.3,2.9*30
$GPRMC,144055.000,A,3306.5579,S,06418.1257,W,2.16,136.03,121124,,,A*65
$GPGGA,144056.000,3306.5583,S,06418.1252,W,1,06,1.4,428.5,M,21.4,M,,0000*5C
$GPGSA,A,3,18,29,25,26,28,23,,,,,,,3.2,1.4,2.9*37
$GPRMC,144056.000,A,3306.5583,S,06418.1252,W,2.00,134.26,121124,,,A*64
$GPGGA,144057.000,3306.5586,S,06418.1246,W,1,06,1.4,428.4,M,21.4,M,,0000*5C
$GPGSA,A,3,18,29,25,26,28,23,,,,,,,3.2,1.4,2.9*37
$GPRMC,144057.000,A,3306.5586,S,06418.1246,W,1.87,133.38,121124,,,A*61
$GPGGA,144058.000,3306.5590,S,06418.1240,W,1,07,1.3,428.2,M,21.4,M,,0000*52
$GPGSA,A,3,18,29,25,26,31,28,23,,,,,,3.1,1.3,2.8*30
$GPRMC,144058.000,A,3306.5590,S,06418.1240,W,1.99,133.45,121124,,,A*6A
$PSRF156,23,1,0*09
$GPGGA,144059.000,3306.5594,S,06418.1234,W,1,07,1.3,428.2,M,21.4,M,,0000*54
$GPGSA,A,3,18,29,25,26,31,28,23,,,,,,3.1,1.3,2.8*30
$GPGSV,3,1,12,18,82,265,25,29,48,130,37,25,42,039,31,26,41,227,17*75
$GPGSV,3,2,12,31,31,265,10,28,30,305,20,23,25,014,25,16,73,024,*77
$GPGSV,3,3,12,24,67,192,,32,64,197,,27,17,069,,17,15,088,*75
$GPRMC,144059.000,A,3306.5594,S,06418.1234,W,2.09,134.60,121124,,,A*66
$GPGGA,144100.000,3306.5598,S,06418.1230,W,1,07,1.3,428.4,M,21.4,M,,0000*57
$GPGSA,A,3,18,29,25,26,31,28,23,,,,,,3.1,1.3,2.8*30
$GPRMC,144100.000,A,3306.5598,S,06418.1230,W,1.94,133.81,121124,,,A*6C
$GPGGA,144101.000,3306.5601,S,06418.1224,W,1,07,1.3,428.5,M,21.4,M,,0000*51
$GPGSA,A,3,18,29,25,26,31,28,23,,,,,,3.1,1.3,2.8*30
$GPRMC,144101.000,A,3306.5601,S,06418.1224,W,1.88,131.42,121124,,,A*6B
$GPGGA,144102.000,3306.5604,S,06418.1216,W,1,07,1.3,428.5,M,21.4,M,,0000*56
$GPGSA,A,3,18,29,25,26,31,28,23,,,,,,3.1,1.3,2.8*30
$GPRMC,144102.000,A,3306.5604,S,06418.1216,W,1.99,129.89,121124,,,A*62
$GPGGA,144103.000,3306.5608,S,06418.1206,W,1,07,1.3,428.7,M,21.4,M,,0000*58
$GPGSA,A,3,18,29,25,26,31,28,23,,,,,,3.1,1.3,2.8*30
$GPRMC,144103.000,A,3306.5608,S,06418.1206,W,2.12,128.71,121124,,,A*68
$GPGGA,144104.000,3306.5612,S,06418.1199,W,1,07,1.3,428.9,M,21.4,M,,0000*5F
$GPGSA,A,3,18,29,25,26,31,28,23,,,,,,3.1,1.3,2.8*30
$GPGSV,3,1,12,18,82,265,24,29,48,130,37,25,42,039,31,26,41,227,19*7A
$GPGSV,3,2,12,31,31,265,17,28,30,305,22,23,25,014,25,16,73,024,*72
$GPGSV,3,3,12,24,67,192,,32,64,197,,27,17,069,,17,15,088,*75
$GPRMC,144104.000,A,3306.5612,S,06418.1199,W,2.37,125.27,121124,,,A*68
$GPGGA,144105.000,3306.5615,S,06418.1191,W,1,07,1.3,429.1,M,21.4,M,,0000*58
$GPGSA,A,3,18,29,25,26,31,28,23,,,,,,3.1,1.3,2.8*30
$GPRMC,144105.000,A,3306.5615,S,06418.1191,W,2.39,124.77,121124,,,A*6C
$GPGGA,144106.000,3306.5619,S,06418.1184,W,1,07,1.3,429.2,M,21.4,M,,0000*50
$GPGSA,A,3,18,29,25,26,31,28,23,,,,,,3.1,1.3,2.8*30
$GPRMC,144106.000,A,3306.5619,S,06418.1184,W,2.22,125.99,121124,,,A*6C
$GPGGA,144107.000,3306.5623,S,06418.1177,W,1,07,1.3,429.3,M,21.4,M,,0000*55
$GPGSA,A,3,18,29,25,26,31,28,23,,,,,,3.1,1.3,2.8*30
$GPRMC,144107.000,A,3306.5623,S,06418.1177,W,2.13,127.50,121124,,,A*6D
$GPGGA,144108.000,3306.5627,S,06418.1171,W,1,07,1.3,429.5,M,21.4,M,,0000*5E
$GPGSA,A,3,18,29,25,26,31,28,23,,,,,,3.1,1.3,2.8*30
$GPRMC,144108.000,A,3306.5627,S,06418.1171,W,2.09,129.19,121124,,,A*68
$GPGGA,144109.000,3306.5631,S,06418.1164,W,1,07,1.3,429.4,M,21.4,M,,0000*5D
$GPGSA,A,3,18,29,25,26,31,28,23,,,,,,3.1,1.3,2.8*30
$GPGSV,3,1,12,18,82,265,27,29,48,130,38,25,42,039,31,26,41,227,19*76
$GPGSV,3,2,12,31,31,265,18,28,30,305,21,23,25,014,27,16,73,024,*7C
$GPGSV,3,3,12,24,67,192,,32,64,197,,27,17,069,,17,15,088,*75
$GPRMC,144109.000,A,3306.5631,S,06418.1164,W,2.23,126.19,121124,,,A*6D
$GPGGA,144110.000,3306.5634,S,06418.1157,W,1,07,1.3,429.4,M,21.4,M,,0000*50
$GPGSA,A,3,18,29,25,26,31,28,23,,,,,,3.1,1.3,2.8*30
$GPRMC,144110.000,A,3306.5634,S,06418.1157,W,2.29,125.53,121124,,,A*67
$GPGGA,144111.000,3306.5638,S,06418.1149,W,1,07,1.3,429.5,M,21.4,M,,0000*53
$GPGSA,A,3,18,29,25,26,31,28,23,,,,,,3.1,1.3,2.8*30
$GPRMC,144111.000,A,3306.5638,S,06418.1149,W,2.36,125.25,121124,,,A*6A
$GPGGA,144112.000,3306.5642,S,06418.1143,W,1,07,1.3,429.8,M,21.4,M,,0000*5A
$GPGSA,A,3,18,29,25,26,31,28,23,,,,,,3.1,1.3,2.8*30
$GPRMC,144112.000,A,3306.5642,S,06418.1143,W,2.20,128.75,121124,,,A*61
$GPGGA,144113.000,3306.5647,S,06418.1138,W,1,07,1.3,429.8,M,21.4,M,,0000*52
$GPGSA,A,3,18,29,25,26,31,28,23,,,,,,3.1,1.3,2.8*30
$GPRMC,144113.000,A,3306.5647,S,06418.1138,W,2.24,132.45,121124,,,A*65
$GPGGA,144114.000,3306.5652,S,06418.1135,W,1,07,1.3,429.8,M,21.4,M,,0000*5C
$GPGSA,A,3,18,29,25,26,31,28,23,,,,,,3.1,1.3,2.8*30
$GPGSV,3,1,12,18,82,265,21,29,48,130,38,25,42,039,31,26,41,227,20*7A
$GPGSV,3,2,12,31,31,265,18,28,30,305,20,23,25,014,18,16,73,024,*71
$GPGSV,3,3,12,24,67,192,,32,64,197,,27,17,069,,17,15,088,*75
$GPRMC,144114.000,A,3306.5652,S,06418.1135,W,2.07,137.96,121124,,,A*61
$GPGGA,144115.000,3306.5657,S,06418.1133,W,1,07,1.3,429.8,M,21.4,M,,0000*5E
$GPGSA,A,3,18,29,25,26,31,28,23,,,,,,3.1,1.3,2.8*30
$GPRMC,144115.000,A,3306.5657,S,06418.1133,W,2.02,143.21,121124,,,A*69
$GPGGA,144116.000,3306.5662,S,06418.1128,W,1,07,1.3,429.7,M,21.4,M,,0000*5E
$GPGSA,A,3,18,29,25,26,31,28,23,,,,,,3.1,1.3,2.8*30
$GPRMC,144116.000,A,3306.5662,S,06418.1128,W,2.14,146.37,121124,,,A*63
$GPGGA,144117.000,3306.5668,S,06418.1124,W,1,07,1.3,429.7,M,21.4,M,,0000*59
$GPGSA,A,3,18,29,25,26,31,28,23,,,,,,3.1,1.3,2.8*30
$GPRMC,144117.000,A,3306.5668,S,06418.1124,W,2.39,147.56,121124,,,A*6D
$GPGGA,144118.000,3306.5673,S,06418.1118,W,1,07,1.3,429.8,M,21.4,M,,0000*5C
$GPGSA,A,3,18,29,25,26,31,28,23,,,,,,3.1,1.3,2.8*30
$GPRMC,144118.000,A,3306.5673,S,06418.1118,W,2.48,149.52,121124,,,A*6B
$GPGGA,144119.000,3306.5679,S,06418.1115,W,1,07,1.3,429.7,M,21.4,M,,0000*55
$GPGSA,A,3,18,29,25,26,31,28,23,,,,,,3.1,1.3,2.8*30
$GPGSV,3,1,12,18,82,265,27,29,48,130,37,25,42,039,31,26,41,227,26*75
$GPGSV,3,2,12,31,31,265,18,28,30,305,19,23,25,014,23,16,73,024,*73
$GPGSV,3,3,12,24,67,192,,32,64,197,,27,17,069,,17,15,088,*75
$GPRMC,144119.000,A,3306.5679,S,06418.1115,W,2.34,151.79,121124,,,A*66
$GPGGA,144120.000,3306.5685,S,06418.1110,W,1,07,1.3,430.0,M,21.4,M,,0000*56
$GPGSA,A,3,18,29,25,26,31,28,23,,,,,,3.1,1.3,2.8*30
$GPRMC,144120.000,A,3306.5685,S,06418.1110,W,2.29,154.20,121124,,,A*6F
$GPGGA,144121.000,3306.5691,S,06418.1106,W,1,07,1.3,430.1,M,21.4,M,,0000*54
$GPGSA,A,3,18,29,25,26,31,28,23,,,,,,3.1,1.3,2.8*30
$GPRMC,144121.000,A,3306.5691,S,06418.1106,W,2.38,155.68,121124,,,A*61
$GPGGA,144122.000,3306.5697,S,06418.1103,W,1,07,1.3,430.2,M,21.4,M,,0000*57
$GPGSA,A,3,18,29,25,26,31,28,23,,,,,,3.1,1.3,2.8*30
$GPRMC,144122.000,A,3306.5697,S,06418.1103,W,2.50,157.58,121124,,,A*6E
$GPGGA,144123.000,3306.5704,S,06418.1101,W,1,07,1.3,430.0,M,21.4,M,,0000*5D
$GPGSA,A,3,18,29,25,26,31,28,23,,,,,,3.1,1.3,2.8*30
$GPRMC,144123.000,A,3306.5704,S,06418.1101,W,2.30,158.05,121124,,,A*67
$GPGGA,144124.000,3306.5710,S,06418.1097,W,1,07,1.3,429.8,M,21.4,M,,0000*51
$GPGSA,A,3,18,29,25,26,31,28,23,,,,,,3.1,1.3,2.8*30
$GPGSV,3,1,12,18,82,265,27,29,48,130,38,25,42,039,25,26,41,227,20*79
$GPGSV,3,2,12,31,31,265,18,28,30,305,19,23,25,014,23,16,73,024,*73
$GPGSV,3,3,12,24,67,192,,32,64,197,,27,17,069,,17,15,088,*75
$GPRMC,144124.000,A,3306.5710,S,06418.1097,W,2.19,157.07,121124,,,A*6D
$GPGGA,144125.000,3306.5716,S,06418.1092,W,1,07,1.3,429.7,M,21.4,M,,0000*5C
$GPGSA,A,3,18,29,25,26,31,28,23,,,,,,3.1,1.3,2.8*30
$GPRMC,144125.000,A,3306.5716,S,06418.1092,W,2.11,155.95,121124,,,A*6E
$GPGGA,144126.000,3306.5721,S,06418.1088,W,1,06,1.4,429.7,M,21.4,M,,0000*56
$GPGSA,A,3,18,29,25,26,31,28,,,,,,,3.4,1.4,3.1*3B
$GPRMC,144126.000,A,3306.5721,S,06418.1088,W,2.25,153.08,121124,,,A*67
$GPGGA,144127.000,3306.5724,S,06418.1084,W,1,07,1.3,429.7,M,21.4,M,,0000*58
$GPGSA,A,3,18,29,25,26,31,28,23,,,,,,3.1,1.3,2.8*30
$GPRMC,144127.000,A,3306.5724,S,06418.1084,W,1.69,150.76,121124,,,A*6E
$GPGGA,144128.000,3306.5726,S,06418.1078,W,1,07,1.3,429.7,M,21.4,M,,0000*56
$GPGSA,A,3,18,29,25,26,31,28,23,,,,,,3.1,1.3,2.8*30
$GPRMC,144128.000,A,3306.5726,S,06418.1078,W,1.71,145.26,121124,,,A*68
$GPGGA,144129.000,3306.5728,S,06418.1071,W,1,07,1.3,429.7,M,21.4,M,,0000*50
$GPGSA,A,3,18,29,25,26,31,28,23,,,,,,3.1,1.3,2.8*30
$GPGSV,3,1,12,18,82,265,21,29,48,130,32,25,42,039,32,26,41,227,19*79
$GPGSV,3,2,12,31,31,265,18,28,30,305,19,23,25,014,16,16,73,024,*75
$GPGSV,3,3,12,24,67,192,,32,64,197,,27,17,069,,17,15,088,*75
$GPRMC,144129.000,A,3306.5728,S,06418.1071,W,2.00,136.40,121124,,,A*6F
$GPGGA,144130.000,3306.5730,S,06418.1067,W,1,07,1.3,429.8,M,21.4,M,,0000*59
$GPGSA,A,3,18,29,25,26,31,28,23,,,,,,3.1,1.3,2.8*30
$GPRMC,144130.000,A,3306.5730,S,06418.1067,W,1.52,132.78,121124,,,A*62
$GPGGA,144131.000,3306.5732,S,06418.1063,W,1,07,1.3,429.9,M,21.4,M,,0000*5F
$GPGSA,A,3,18,29,25,26,31,28,23,,,,,,3.1,1.3,2.8*30
$GPRMC,144131.000,A,3306.5732,S,06418.1063,W,1.41,132.33,121124,,,A*68
$GPGGA,144132.000,3306.5736,S,06418.1057,W,1,07,1.3,429.9,M,21.4,M,,0000*5F
$GPGSA,A,3,18,29,25,26,31,28,23,,,,,,3.1,1.3,2.8*30
$GPRMC,144132.000,A,3306.5736,S,06418.1057,W,1.67,131.47,121124,,,A*6C
$GPGGA,144133.000,3306.5739,S,06418.1050,W,1,07,1.3,429.9,M,21.4,M,,0000*56
$GPGSA,A,3,18,29,25,26,31,28,23,,,,,,3.1,1.3,2.8*30
$GPRMC,144133.000,A,3306.5739,S,06418.1050,W,1.87,128.94,121124,,,A*6D
$GPGGA,144134.000,3306.5742,S,06418.1045,W,1,07,1.3,430.0,M,21.4,M,,0000*58
$GPGSA,A,3,18,29,25,26,31,28,23,,,,,,3.1,1.3,2.8*30
$GPGSV,3,1,12,18,82,265,22,29,48,130,39,25,42,039,30,26,41,227,17*7D
$GPGSV,3,2,12,31,31,265,17,28,30,305,19,23,25,014,20,16,73,024,*7F
$GPGSV,3,3,12,24,67,192,,32,64,197,,27,17,069,,17,15,088,*75
$GPRMC,144134.000,A,3306.5742,S,06418.1045,W,1.60,129.55,121124,,,A*67
$GPGGA,144135.000,3306.5746,S,06418.1039,W,1,07,1.3,430.0,M,21.4,M,,0000*56
$GPGSA,A,3,18,29,25,26,31,28,23,,,,,,3.1,1.3,2.8*30
$GPRMC,144135.000,A,3306.5746,S,06418.1039,W,1.88,130.81,121124,,,A*6E
$GPGGA,144136.000,3306.5750,S,06418.1031,W,1,07,1.3,430.0,M,21.4,M,,0000*5A
$GPGSA,A,3,18,29,25,26,31,28,23,,,,,,3.1,1.3,2.8*30
$GPRMC,144136.000,A,3306.5750,S,06418.1031,W,2.07,127.76,121124,,,A*68
$GPGGA,144137.000,3306.5753,S,06418.1025,W,1,07,1.3,430.1,M,21.4,M,,0000*5C
$GPGSA,A,3,18,29,25,26,31,28,23,,,,,,3.1,1.3,2.8*30
$GPRMC,144137.000,A,3306.5753,S,06418.1025,W,2.04,125.36,121124,,,A*6A
$GPGGA,144138.000,3306.5756,S,06418.1018,W,1,07,1.3,430.2,M,21.4,M,,0000*5B
$GPGSA,A,3,18,29,25,26,31,28,23,,,,,,3.1,1.3,2.8*30
$GPRMC,144138.000,A,3306.5756,S,06418.1018,W,1.86,124.45,121124,,,A*62
$GPGGA,144139.000,3306.5760,S,06418.1012,W,1,07,1.3,430.3,M,21.4,M,,0000*54
$GPGSA,A,3,18,29,25,26,31,28,23,,,,,,3.1,1.3,2.8*30
$GPGSV,3,1,12,18,82,265,22,29,48,130,39,25,42,039,31,26,41,227,16*7D
$GPGSV,3,2,12,31,31,265,18,28,30,305,20,23,25,014,22,16,73,024,*78
$GPGSV,3,3,12,24,67,192,,32,64,197,,27,17,069,,17,15,088,*75
$GPRMC,144139.000,A,3306.5760,S,06418.1012,W,1.85,121.95,121124,,,A*67
$GPGGA,144140.000,3306.5762,S,06418.1006,W,1,07,1.3,430.4,M,21.4,M,,0000*5A
$GPGSA,A,3,18,29,25,26,31,28,23,,,,,,3.1,1.3,2.8*30
$GPRMC,144140.000,A,3306.5762,S,06418.1006,W,1.99,121.00,121124,,,A*6F
$GPGGA,144141.000,3306.5764,S,06418.0995,W,1,07,1.3,430.5,M,21.4,M,,0000*5E
$GPGSA,A,3,18,29,25,26,31,28,23,,,,,,3.1,1.3,2.8*30
$GPRMC,144141.000,A,3306.5764,S,06418.0995,W,2.04,117.01,121124,,,A*69
$GPGGA,144142.000,3306.5766,S,06418.0980,W,1,07,1.3,431.0,M,21.4,M,,0000*5F
$GPGSA,A,3,18,29,25,26,31,28,23,,,,,,3.1,1.3,2.8*30
$GPRMC,144142.000,A,3306.5766,S,06418.0980,W,2.32,115.79,121124,,,A*64
$GPGGA,144143.000,3306.5769,S,06418.0970,W,1,07,1.3,431.1,M,21.4,M,,0000*5F
$GPGSA,A,3,18,29,25,26,31,28,23,,,,,,3.1,1.3,2.8*30
$GPRMC,144143.000,A,3306.5769,S,06418.0970,W,2.25,114.16,121124,,,A*6B
$GPGGA,144144.000,3306.5772,S,06418.0962,W,1,07,1.3,431.3,M,21.4,M,,0000*53
$GPGSA,A,3,18,29,25,26,31,28,23,,,,,,3.1,1.3,2.8*30
$GPGSV,3,1,12,18,82,265,24,29,48,130,36,25,42,039,25,26,41,227,11*76
$GPGSV,3,2,12,31,31,265,23,28,30,305,24,23,25,014,23,16,73,024,*75
$GPGSV,3,3,12,24,67,192,,32,64,197,,27,17,069,,17,15,088,*75
$GPRMC,144144.000,A,3306.5772,S,06418.0962,W,1.92,113.93,121124,,,A*60
$GPGGA,144145.000,3306.5774,S,06418.0955,W,1,07,1.3,431.7,M,21.4,M,,0000*54
$GPGSA,A,3,18,29,25,26,31,28,23,,,,,,3.1,1.3,2.8*30
$GPRMC,144145.000,A,3306.5774,S,06418.0955,W,1.92,113.33,121124,,,A*69
$GPGGA,144146.000,3306.5776,S,06418.0947,W,1,07,1.3,431.9,M,21.4,M,,0000*58
$GPGSA,A,3,18,29,25,26,31,28,23,,,,,,3.1,1.3,2.8*30
$GPRMC,144146.000,A,3306.5776,S,06418.0947,W,2.16,110.40,121124,,,A*63
$GPGGA,144147.000,3306.5779,S,06418.0939,W,1,07,1.3,431.8,M,21.4,M,,0000*5E
$GPGSA,A,3,18,29,25,26,31,28,23,,,,,,3.1,1.3,2.8*30
$GPRMC,144147.000,A,3306.5779,S,06418.0939,W,2.29,111.51,121124,,,A*69
$GPGGA,144148.000,3306.5782,S,06418.0931,W,1,07,1.3,431.8,M,21.4,M,,0000*5D
$GPGSA,A,3,18,29,25,26,31,28,23,,,,,,3.1,1.3,2.8*30
$GPRMC,144148.000,A,3306.5782,S,06418.0931,W,2.43,113.80,121124,,,A*68
$GPGGA,144149.000,3306.5785,S,06418.0926,W,1,07,1.3,431.8,M,21.4,M,,0000*5D
$GPGSA,A,3,18,29,25,26,31,28,23,,,,,,3.1,1.3,2.8*30
$GPGSV,3,1,12,18,82,265,24,29,48,130,37,25,42,039,26,26,41,227,09*7D
$GPGSV,3,2,12,31,31,265,21,28,30,305,22,23,25,014,25,16,73,024,*77
$GPGSV,3,3,12,24,67,192,,32,64,197,,27,17,069,,17,15,088,*75
$GPRMC,144149.000,A,3306.5785,S,06418.0926,W,2.12,116.87,121124,,,A*6E
$GPGGA,144150.000,3306.5788,S,06418.0919,W,1,07,1.3,431.8,M,21.4,M,,0000*54
$GPGSA,A,3,18,29,25,26,31,28,23,,,,,,3.1,1.3,2.8*30
$GPRMC,144150.000,A,3306.5788,S,06418.0919,W,1.82,117.83,121124,,,A*68
$GPGGA,144151.000,3306.5791,S,06418.0916,W,1,06,1.4,431.8,M,21.4,M,,0000*54
$GPGSA,A,3,18,29,25,31,28,23,,,,,,,3.2,1.4,2.9*31
$GPRMC,144151.000,A,3306.5791,S,06418.0916,W,1.62,120.06,121124,,,A*69
$GPGGA,144152.000,3306.5794,S,06418.0910,W,1,06,1.4,431.6,M,21.4,M,,0000*5A
$GPGSA,A,3,18,29,25,31,28,23,,,,,,,3.2,1.4,2.9*31
$GPRMC,144152.000,A,3306.5794,S,06418.0910,W,1.79,124.77,121124,,,A*61
$GPGGA,144153.000,3306.5798,S,06418.0906,W,1,06,1.4,431.6,M,21.4,M,,0000*50
$GPGSA,A,3,18,29,25,31,28,23,,,,,,,3.2,1.4,2.9*31
$GPRMC,144153.000,A,3306.5798,S,06418.0906,W,1.63,127.36,121124,,,A*66
$GPGGA,144154.000,3306.5800,S,06418.0902,W,1,06,1.4,431.6,M,21.4,M,,0000*5D
$GPGSA,A,3,18,29,25,31,28,23,,,,,,,3.2,1.4,2.9*31
$GPGSV,3,1,12,18,82,265,23,29,48,130,33,25,42,039,31,31,31,265,20*74
$GPGSV,3,2,12,28,30,305,22,23,25,014,18,26,41,227,06,16,73,024,*7B
$GPGSV,3,3,12,24,67,192,,32,64,197,,27,17,069,,17,15,088,*75
$GPRMC,144154.000,A,3306.5800,S,06418.0902,W,1.41,131.07,121124,,,A*6E
$GPGGA,144155.000,3306.5804,S,06418.0897,W,1,06,1.4,431.7,M,21.4,M,,0000*54
$GPGSA,A,3,18,29,25,31,28,23,,,,,,,3.2,1.4,2.9*31
$GPRMC,144155.000,A,3306.5804,S,06418.0897,W,1.84,133.55,121124,,,A*6A
$GPGGA,144156.000,3306.5808,S,06418.0890,W,1,05,1.7,431.7,M,21.4,M,,0000*5C
$GPGSA,A,3,18,29,25,28,23,,,,,,,,3.7,1.7,3.3*3E
$GPRMC,144156.000,A,3306.5808,S,06418.0890,W,2.18,133.34,121124,,,A*63
$GPGGA,144157.000,3306.5812,S,06418.0885,W,1,07,1.3,431.8,M,21.4,M,,0000*5B
$GPGSA,A,3,18,29,26,25,31,28,23,,,,,,3.1,1.3,2.8*30
$GPRMC,144157.000,A,3306.5812,S,06418.0885,W,2.20,134.75,121124,,,A*64
$GPGGA,144158.000,3306.5817,S,06418.0879,W,1,07,1.3,431.7,M,21.4,M,,0000*5D
$GPGSA,A,3,18,29,26,25,31,28,23,,,,,,3.1,1.3,2.8*30
$GPRMC,144158.000,A,3306.5817,S,06418.0879,W,2.30,136.96,121124,,,A*63
$GPGGA,144159.000,3306.5822,S,06418.0873,W,1,07,1.3,431.7,M,21.4,M,,0000*50
$GPGSA,A,3,18,29,26,25,31,28,23,,,,,,3.1,1.3,2.8*30
$GPGSV,3,1,12,18,82,254,23,29,47,128,39,26,42,228,18,25,41,038,31*78
$GPGSV,3,2,12,31,31,267,11,28,29,306,17,23,27,014,24,16,75,027,*7D
$GPGSV,3,3,12,24,66,188,,32,66,195,,27,17,070,,17,16,089,*75
$GPRMC,144159.000,A,3306.5822,S,06418.0873,W,2.26,137.76,121124,,,A*66
$GPGGA,144200.000,3306.5827,S,06418.0866,W,1,07,1.3,431.6,M,21.4,M,,0000*5F
$GPGSA,A,3,18,29,26,25,31,28,23,,,,,,3.1,1.3,2.8*30
$GPRMC,144200.000,A,3306.5827,S,06418.0866,W,2.24,133.31,121124,,,A*6D
$GPGGA,144201.000,3306.5831,S,06418.0859,W,1,07,1.3,431.6,M,21.4,M,,0000*55
$GPGSA,A,3,18,29,26,25,31,28,23,,,,,,3.1,1.3,2.8*30
$GPRMC,144201.000,A,3306.5831,S,06418.0859,W,2.11,130.79,121124,,,A*6E
$GPGGA,144202.000,3306.5834,S,06418.0851,W,1,07,1.3,431.5,M,21.4,M,,0000*58
$GPGSA,A,3,18,29,26,25,31,28,23,,,,,,3.1,1.3,2.8*30
$GPRMC,144202.000,A,3306.5834,S,06418.0851,W,2.42,125.05,121124,,,A*69
$GPGGA,144203.000,3306.5838,S,06418.0843,W,1,07,1.3,431.5,M,21.4,M,,0000*56
$GPGSA,A,3,18,29,26,25,31,28,23,,,,,,3.1,1.3,2.8*30
$GPRMC,144203.000,A,3306.5838,S,06418.0843,W,2.28,121.97,121124,,,A*64
$GPGGA,144204.000,3306.5841,S,06418.0835,W,1,07,1.3,431.5,M,21.4,M,,0000*5E
$GPGSA,A,3,18,29,26,25,31,28,23,,,,,,3.1,1.3,2.8*30
$GPGSV,3,1,12,18,82,254,23,29,47,128,38,26,42,228,16,25,41,038,31*77
$GPGSV,3,2,12,31,31,267,21,28,29,306,20,23,27,014,23,16,75,027,*7D
$GPGSV,3,3,12,24,66,188,,32,66,195,,27,17,070,,17,16,089,*75
$GPRMC,144204.000,A,3306.5841,S,06418.0835,W,2.20,119.51,121124,,,A*65
$GPGGA,144205.000,3306.5843,S,06418.0826,W,1,07,1.3,431.5,M,21.4,M,,0000*5F
$GPGSA,A,3,18,29,26,25,31,28,23,,,,,,3.1,1.3,2.8*30
$GPRMC,144205.000,A,3306.5843,S,06418.0826,W,2.42,111.91,121124,,,A*64
$GPGGA,144206.000,3306.5844,S,06418.0817,W,1,07,1.3,431.3,M,21.4,M,,0000*5F
$GPGSA,A,3,18,29,26,25,31,28,23,,,,,,3.1,1.3,2.8*30
$GPRMC,144206.000,A,3306.5844,S,06418.0817,W,2.53,103.46,121124,,,A*6B
$GPGGA,144207.000,3306.5846,S,06418.0807,W,1,07,1.3,431.5,M,21.4,M,,0000*5B
$GPGSA,A,3,18,29,26,25,31,28,23,,,,,,3.1,1.3,2.8*30
$GPRMC,144207.000,A,3306.5846,S,06418.0807,W,2.65,104.49,121124,,,A*64
$GPGGA,144208.000,3306.5848,S,06418.0800,W,1,07,1.3,431.5,M,21.4,M,,0000*5D
$GPGSA,A,3,18,29,26,25,31,28,23,,,,,,3.1,1.3,2.8*30
$GPRMC,144208.000,A,3306.5848,S,06418.0800,W,2.22,107.35,121124,,,A*69
$GPGGA,144209.000,3306.5851,S,06418.0792,W,1,07,1.3,431.5,M,21.4,M,,0000*50
$GPGSA,A,3,18,29,26,25,31,28,23,,,,,,3.1,1.3,2.9*31
$GPGSV,3,1,12,18,82,254,22,29,47,128,38,26,42,228,16,25,41,038,31*76
$GPGSV,3,2,12,31,31,267,21,28,29,306,21,23,27,014,23,16,75,027,*7C
$GPGSV,3,3,12,24,66,188,,32,66,195,,27,17,070,,17,16,089,*75
$GPRMC,144209.000,A,3306.5851,S,06418.0792,W,2.24,112.08,121124,,,A*68
$GPGGA,144210.000,3306.5854,S,06418.0784,W,1,07,1.3,431.5,M,21.4,M,,0000*5A
$GPGSA,A,3,18,29,26,25,31,28,23,,,,,,3.1,1.3,2.9*31
$GPRMC,144210.000,A,3306.5854,S,06418.0784,W,2.35,115.80,121124,,,A*65
$GPGGA,144211.000,3306.5858,S,06418.0777,W,1,07,1.3,431.4,M,21.4,M,,0000*5A
$GPGSA,A,3,18,29,26,25,31,28,23,,,,,,3.1,1.3,2.9*31
$GPRMC,144211.000,A,3306.5858,S,06418.0777,W,2.37,117.65,121124,,,A*6F
$GPGGA,144212.000,3306.5861,S,06418.0768,W,1,07,1.3,431.1,M,21.4,M,,0000*58
$GPGSA,A,3,18,29,26,25,31,28,23,,,,,,3.1,1.3,2.9*31
$GPRMC,144212.000,A,3306.5861,S,06418.0768,W,2.69,116.23,121124,,,A*60
$GPGGA,144213.000,3306.5865,S,06418.0759,W,1,07,1.3,430.9,M,21.4,M,,0000*56
$GPGSA,A,3,18,29,26,25,31,28,23,,,,,,3.1,1.3,2.9*31
$GPRMC,144213.000,A,3306.5865,S,06418.0759,W,2.50,116.60,121124,,,A*6A
