$GPRMC,141928.002,A,3306.6735,S,06417.9505,W,0.30,126.06,121124,,,A*6D
$GPGGA,141929.002,3306.6711,S,06417.9316,W,1,04,1.8,468.8,M,21.4,M,,0000*51
$GPGSA,A,3,29,26,31,23,,,,,,,,,3.5,1.8,3.0*32
$GPRMC,141929.002,A,3306.6711,S,06417.9316,W,0.34,126.06,121124,,,A*6A
$GPGGA,141930.002,3306.6741,S,06417.9287,W,1,04,1.8,451.0,M,21.4,M,,0000*57
$GPGSA,A,3,29,26,31,23,,,,,,,,,3.5,1.8,3.0*32
$GPRMC,141930.002,A,3306.6741,S,06417.9287,W,0.49,126.06,121124,,,A*64
$GPGGA,141931.002,3306.6772,S,06417.9252,W,1,04,1.8,433.0,M,21.4,M,,0000*5A
$GPGSA,A,3,29,26,31,23,,,,,,,,,3.5,1.8,3.0*32
$GPRMC,141931.002,A,3306.6772,S,06417.9252,W,0.49,126.06,121124,,,A*6D
$GPGGA,141932.001,3306.6799,S,06417.9222,W,1,04,1.8,417.6,M,21.4,M,,0000*58
$GPGSA,A,3,29,26,31,23,,,,,,,,,3.5,1.8,3.0*32
$GPGSV,3,1,12,29,52,142,33,26,33,225,37,31,32,255,25,23,17,010,41*73
$GPGSV,3,2,12,05,00,000,24,12,03,332,29,18,00,000,40,20,00,000,23*7F
$GPGSV,3,3,12,25,65,105,26,28,23,138,41,24,68,215,,16,64,012,*72
$GPRMC,141932.001,A,3306.6799,S,06417.9222,W,0.82,126.06,121124,,,A*68
$GPGGA,141933.002,3306.6798,S,06417.9223,W,1,04,1.8,418.0,M,21.4,M,,0000*53
$GPGSA,A,3,29,26,31,23,,,,,,,,,3.5,1.8,3.0*32
$GPRMC,141933.002,A,3306.6798,S,06417.9223,W,0.60,126.06,121124,,,A*66
$GPGGA,141934.002,3306.6780,S,06417.9240,W,1,06,1.3,429.2,M,21.4,M,,0000*51
$GPGSA,A,3,18,29,28,26,31,23,,,,,,,2.5,1.3,2.2*38
$GPRMC,141934.002,A,3306.6780,S,06417.9240,W,0.10,126.06,121124,,,A*6A
$GPGGA,141935.002,3306.6778,S,06417.9243,W,1,06,1.3,430.2,M,21.4,M,,0000*5C
$GPGSA,A,3,18,29,28,26,31,23,,,,,,,2.5,1.3,2.2*38
$GPRMC,141935.002,A,3306.6778,S,06417.9243,W,0.30,126.06,121124,,,A*6D
$GPGGA,141936.000,3306.6777,S,06417.9245,W,1,06,1.3,430.8,M,21.4,M,,0000*5E
$GPGSA,A,3,18,29,28,26,31,23,,,,,,,2.6,1.3,2.2*3B
$GPRMC,141936.000,A,3306.6777,S,06417.9245,W,0.20,126.06,121124,,,A*64
$GPGGA,141937.000,3306.6773,S,06417.9251,W,1,06,1.3,432.3,M,21.4,M,,0000*57
$GPGSA,A,3,18,29,28,26,31,23,,,,,,,2.6,1.3,2.2*3B
$GPGSV,3,1,12,18,75,308,40,29,52,142,38,28,36,296,42,26,33,225,35*7F
$GPGSV,3,2,12,31,32,255,41,23,17,010,41,05,00,000,34,12,03,332,19*74
$GPGSV,3,3,12,20,00,000,31,25,65,105,26,24,68,215,,16,64,012,*76
$GPRMC,141937.000,A,3306.6773,S,06417.9251,W,0.61,126.06,121124,,,A*61
$GPGGA,141938.000,3306.6775,S,06417.9254,W,1,06,1.3,431.7,M,21.4,M,,0000*5C
$GPGSA,A,3,18,29,28,26,31,23,,,,,,,2.6,1.3,2.2*3B
$GPRMC,141938.000,A,3306.6775,S,06417.9254,W,0.05,126.06,121124,,,A*6F
$GPGGA,141939.000,3306.6776,S,06417.9255,W,1,06,1.3,431.0,M,21.4,M,,0000*58
$GPGSA,A,3,18,29,28,26,31,23,,,,,,,2.6,1.3,2.2*3B
$GPRMC,141939.000,A,3306.6776,S,06417.9255,W,0.44,126.06,121124,,,A*69
$GPGGA,141940.000,3306.6776,S,06417.9255,W,1,06,1.3,430.6,M,21.4,M,,0000*51
$GPGSA,A,3,18,29,28,26,31,23,,,,,,,2.6,1.3,2.2*3B
$GPRMC,141940.000,A,3306.6776,S,06417.9255,W,0.34,126.06,121124,,,A*60
$GPGGA,141941.000,3306.6776,S,06417.9255,W,1,06,1.3,430.5,M,21.4,M,,0000*53
$GPGSA,A,3,18,29,28,26,31,23,,,,,,,2.6,1.3,2.2*3B
$GPRMC,141941.000,A,3306.6776,S,06417.9255,W,0.01,126.06,121124,,,A*67
$GPGGA,141942.000,3306.6777,S,06417.9255,W,1,06,1.3,430.5,M,21.4,M,,0000*51
$GPGSA,A,3,18,29,28,26,31,23,,,,,,,2.6,1.3,2.2*3B
$GPGSV,3,1,12,18,75,308,29,29,52,142,34,28,36,296,25,26,33,225,24*7D
$GPGSV,3,2,12,31,32,255,29,23,17,010,33,05,00,000,26,12,03,332,19*7C
$GPGSV,3,3,12,20,00,000,18,25,65,105,26,24,68,215,,16,64,012,*7D
$GPRMC,141942.000,A,3306.6777,S,06417.9255,W,0.50,126.06,121124,,,A*61
$GPGGA,141943.000,3306.6777,S,06417.9253,W,1,06,1.3,430.5,M,21.4,M,,0000*56
$GPGSA,A,3,18,29,28,26,31,23,,,,,,,2.6,1.3,2.2*3B
$GPRMC,141943.000,A,3306.6777,S,06417.9253,W,0.30,126.06,121124,,,A*60
$GPGGA,141944.000,3306.6778,S,06417.9253,W,1,06,1.3,430.4,M,21.4,M,,0000*5F
$GPGSA,A,3,18,29,28,26,31,23,,,,,,,2.6,1.3,2.2*3B
$GPRMC,141944.000,A,3306.6778,S,06417.9253,W,0.47,126.06,121124,,,A*68
$GPGGA,141945.000,3306.6776,S,06417.9256,W,1,06,1.3,430.8,M,21.4,M,,0000*59
$GPGSA,A,3,18,29,28,26,31,23,,,,,,,2.6,1.3,2.2*3B
$GPRMC,141945.000,A,3306.6776,S,06417.9256,W,0.41,126.06,121124,,,A*64
$GPGGA,141946.000,3306.6775,S,06417.9258,W,1,06,1.3,430.8,M,21.4,M,,0000*57
$GPGSA,A,3,18,29,28,26,31,23,,,,,,,2.6,1.3,2.2*3B
$GPRMC,141946.000,A,3306.6775,S,06417.9258,W,0.90,126.06,121124,,,A*66
$GPGGA,141947.000,3306.6775,S,06417.9258,W,1,06,1.3,431.1,M,21.4,M,,0000*5E
$GPGSA,A,3,18,29,28,26,31,23,,,,,,,2.6,1.3,2.2*3B
$GPGSV,3,1,12,18,75,308,38,29,52,142,33,28,36,296,35,26,33,225,27*78
$GPGSV,3,2,12,31,32,255,34,23,17,010,32,05,00,000,30,12,03,332,20*7C
$GPGSV,3,3,12,20,00,000,21,25,65,105,29,24,68,215,,16,64,012,*78
$GPRMC,141947.000,A,3306.6775,S,06417.9258,W,0.47,126.06,121124,,,A*6D
$GPGGA,141948.000,3306.6773,S,06417.9254,W,1,06,1.3,430.9,M,21.4,M,,0000*52
$GPGSA,A,3,18,29,28,26,31,23,,,,,,,2.6,1.3,2.2*3B
$GPRMC,141948.000,A,3306.6773,S,06417.9254,W,1.25,63.59,121124,,,A*57
$GPGGA,141949.000,3306.6771,S,06417.9249,W,1,06,1.3,430.7,M,21.4,M,,0000*53
$GPGSA,A,3,18,29,28,26,31,23,,,,,,,2.6,1.3,2.2*3B
$GPRMC,141949.000,A,3306.6771,S,06417.9249,W,1.54,76.67,121124,,,A*57
$GPGGA,141950.000,3306.6769,S,06417.9244,W,1,06,1.3,430.6,M,21.4,M,,0000*5E
$GPGSA,A,3,18,29,28,26,31,23,,,,,,,2.6,1.3,2.2*3B
$GPRMC,141950.000,A,3306.6769,S,06417.9244,W,1.71,65.28,121124,,,A*55
$GPGGA,141951.000,3306.6766,S,06417.9240,W,1,06,1.3,430.9,M,21.4,M,,0000*5B
$GPGSA,A,3,18,29,28,26,31,23,,,,,,,2.6,1.3,2.2*3B
$GPRMC,141951.000,A,3306.6766,S,06417.9240,W,1.80,63.74,121124,,,A*5E
$GPGGA,141952.000,3306.6763,S,06417.9234,W,1,06,1.3,430.9,M,21.4,M,,0000*5E
$GPGSA,A,3,18,29,28,26,31,23,,,,,,,2.6,1.3,2.2*3B
$GPGSV,3,1,12,18,75,308,35,29,52,142,24,28,36,296,29,26,33,225,26*7F
$GPGSV,3,2,12,31,32,255,33,23,17,010,29,05,00,000,33,12,03,332,21*73
$GPGSV,3,3,12,20,00,000,18,25,65,105,34,24,68,215,,16,64,012,*7E
$GPRMC,141952.000,A,3306.6763,S,06417.9234,W,2.13,59.32,121124,,,A*59
$GPGGA,141953.000,3306.6759,S,06417.9230,W,1,06,1.3,431.0,M,21.4,M,,0000*5A
$GPGSA,A,3,18,29,28,26,31,23,,,,,,,2.6,1.3,2.2*3B
$GPRMC,141953.000,A,3306.6759,S,06417.9230,W,1.61,57.71,121124,,,A*5A
$GPGGA,141954.000,3306.6756,S,06417.9225,W,1,06,1.3,431.0,M,21.4,M,,0000*56
$GPGSA,A,3,18,29,28,26,31,23,,,,,,,2.6,1.3,2.2*3B
$GPRMC,141954.000,A,3306.6756,S,06417.9225,W,1.87,56.59,121124,,,A*55
$GPGGA,141955.000,3306.6751,S,06417.9220,W,1,06,1.3,432.2,M,21.4,M,,0000*54
$GPGSA,A,3,18,29,28,26,31,23,,,,,,,2.6,1.3,2.2*3B
$GPRMC,141955.000,A,3306.6751,S,06417.9220,W,2.36,53.65,121124,,,A*55
$GPGGA,141956.000,3306.6747,S,06417.9215,W,1,06,1.3,432.1,M,21.4,M,,0000*55
$GPGSA,A,3,18,29,28,26,31,23,,,,,,,2.6,1.3,2.2*3B
$GPRMC,141956.000,A,3306.6747,S,06417.9215,W,1.78,48.75,121124,,,A*55
$GPGGA,141957.000,3306.6747,S,06417.9208,W,1,06,1.3,431.8,M,21.4,M,,0000*52
$GPGSA,A,3,18,29,28,26,31,23,,,,,,,2.6,1.3,2.2*3B
$GPGSV,3,1,12,18,75,308,33,29,52,142,29,28,36,296,33,26,33,225,22*7B
$GPGSV,3,2,12,31,32,255,30,23,17,010,30,05,00,000,32,12,03,332,26*7E
$GPGSV,3,3,12,20,00,000,18,25,65,105,29,24,68,215,,16,64,012,*72
$GPRMC,141957.000,A,3306.6747,S,06417.9208,W,1.28,59.45,121124,,,A*5E
$GPGGA,141958.000,3306.6748,S,06417.9202,W,1,06,1.3,431.7,M,21.4,M,,0000*57
$GPGSA,A,3,18,29,28,26,31,23,,,,,,,2.6,1.3,2.2*3B
$GPRMC,141958.000,A,3306.6748,S,06417.9202,W,1.77,72.37,121124,,,A*52
$GPGGA,141959.000,3306.6746,S,06417.9196,W,1,06,1.3,431.7,M,21.4,M,,0000*56
$GPGSA,A,3,18,29,28,26,31,23,,,,,,,2.6,1.3,2.2*3B
$GPRMC,141959.000,A,3306.6746,S,06417.9196,W,1.86,68.54,121124,,,A*53
$GPGGA,142000.000,3306.6740,S,06417.9196,W,1,06,1.3,431.9,M,21.4,M,,0000*58
$GPGSA,A,3,18,29,28,26,31,23,,,,,,,2.6,1.3,2.2*3B
$GPRMC,142000.000,A,3306.6740,S,06417.9196,W,1.85,44.91,121124,,,A*57
$GPGGA,142001.000,3306.6733,S,06417.9194,W,1,06,1.3,432.4,M,21.4,M,,0000*51
$GPGSA,A,3,18,29,28,26,31,23,,,,,,,2.6,1.3,2.2*3B
$GPRMC,142001.000,A,3306.6733,S,06417.9194,W,2.25,36.76,121124,,,A*55
$GPGGA,142002.000,3306.6727,S,06417.9191,W,1,06,1.3,432.4,M,21.4,M,,0000*52
$GPGSA,A,3,18,29,28,26,31,23,,,,,,,2.6,1.3,2.2*3B
$GPGSV,3,1,12,18,75,308,33,29,52,142,23,28,36,296,40,26,33,225,25*72
$GPGSV,3,2,12,31,32,255,30,23,17,010,23,05,00,000,26,12,03,332,30*7E
$GPGSV,3,3,12,20,00,000,18,25,65,105,30,24,68,215,,16,64,012,*7A
$GPRMC,142002.000,A,3306.6727,S,06417.9191,W,2.35,32.27,121124,,,A*57
$GPGGA,142003.000,3306.6720,S,06417.9188,W,1,06,1.3,432.8,M,21.4,M,,0000*50
$GPGSA,A,3,18,29,28,26,31,23,,,,,,,2.6,1.3,2.2*3B
$GPRMC,142003.000,A,3306.6720,S,06417.9188,W,2.21,29.86,121124,,,A*5D
$GPGGA,142004.000,3306.6715,S,06417.9186,W,1,06,1.3,432.9,M,21.4,M,,0000*5E
$GPGSA,A,3,18,29,28,26,31,23,,,,,,,2.6,1.3,2.2*3B
$GPRMC,142004.000,A,3306.6715,S,06417.9186,W,1.83,29.24,121124,,,A*51
$GPGGA,142005.000,3306.6711,S,06417.9182,W,1,06,1.3,433.0,M,21.4,M,,0000*57
$GPGSA,A,3,18,29,28,26,31,23,,,,,,,2.6,1.3,2.2*3B
$GPRMC,142005.000,A,3306.6711,S,06417.9182,W,1.65,31.22,121124,,,A*57
$GPGGA,142006.000,3306.6707,S,06417.9176,W,1,06,1.3,433.1,M,21.4,M,,0000*59
$GPGSA,A,3,18,29,28,26,31,23,,,,,,,2.6,1.3,2.2*3B
$GPRMC,142006.000,A,3306.6707,S,06417.9176,W,2.12,41.61,121124,,,A*5B
$GPGGA,142007.000,3306.6706,S,06417.9172,W,1,06,1.3,433.1,M,21.4,M,,0000*5D
$GPGSA,A,3,18,29,28,26,31,23,,,,,,,2.6,1.3,2.2*3B
$GPGSV,3,1,12,18,75,308,36,29,52,142,34,28,36,296,35,26,33,225,23*75
$GPGSV,3,2,12,31,32,255,29,23,17,010,26,05,00,000,26,12,03,332,22*70
$GPGSV,3,3,12,20,00,000,18,25,65,105,34,24,68,215,,16,64,012,*7E
$GPRMC,142007.000,A,3306.6706,S,06417.9172,W,1.49,52.55,121124,,,A*57
$GPGGA,142008.000,3306.6705,S,06417.9166,W,1,06,1.3,433.1,M,21.4,M,,0000*54
$GPGSA,A,3,18,29,28,26,31,23,,,,,,,2.6,1.3,2.2*3B
$GPRMC,142008.000,A,3306.6705,S,06417.9166,W,1.76,56.07,121124,,,A*51
$GPGGA,142009.000,3306.6704,S,06417.9160,W,1,06,1.3,433.1,M,21.4,M,,0000*52
$GPGSA,A,3,18,29,28,26,31,23,,,,,,,2.6,1.3,2.2*3B
$GPRMC,142009.000,A,3306.6704,S,06417.9160,W,2.19,67.21,121124,,,A*5B
$GPGGA,142010.000,3306.6707,S,06417.9154,W,1,06,1.3,433.0,M,21.4,M,,0000*5F
$GPGSA,A,3,18,29,28,26,31,23,,,,,,,2.6,1.3,2.2*3B
$GPRMC,142010.000,A,3306.6707,S,06417.9154,W,2.13,94.90,121124,,,A*5B
$GPGGA,142011.000,3306.6706,S,06417.9147,W,1,06,1.3,432.9,M,21.4,M,,0000*55
$GPGSA,A,3,18,29,28,26,31,23,,,,,,,2.6,1.3,2.2*3B
$GPRMC,142011.000,A,3306.6706,S,06417.9147,W,2.15,94.98,121124,,,A*57
$GPGGA,142012.000,3306.6705,S,06417.9139,W,1,06,1.3,433.0,M,21.4,M,,0000*54
$GPGSA,A,3,18,29,28,26,31,23,,,,,,,2.6,1.3,2.2*3B
$GPGSV,3,1,12,18,75,308,34,29,52,142,35,28,36,296,29,26,33,225,16*7D
$GPGSV,3,2,12,31,32,255,28,23,17,010,31,12,03,332,28,20,00,000,16*79
$GPGSV,3,3,12,25,65,105,39,24,68,215,,16,64,012,,32,57,207,*7E
$GPRMC,142012.000,A,3306.6705,S,06417.9139,W,2.22,96.07,121124,,,A*5E
$GPGGA,142013.000,3306.6706,S,06417.9132,W,1,06,1.3,433.1,M,21.4,M,,0000*5C
$GPGSA,A,3,18,29,28,26,31,23,,,,,,,2.6,1.3,2.2*3B
$GPRMC,142013.000,A,3306.6706,S,06417.9132,W,2.37,96.24,121124,,,A*52
$GPGGA,142014.000,3306.6707,S,06417.9124,W,1,05,1.5,433.1,M,21.4,M,,0000*58
$GPGSA,A,3,18,29,28,31,23,,,,,,,,2.9,1.5,2.5*31
$GPRMC,142014.000,A,3306.6707,S,06417.9124,W,2.18,96.46,121124,,,A*5A
$GPGGA,142015.000,3306.6708,S,06417.9116,W,1,05,1.5,433.2,M,21.4,M,,0000*54
$GPGSA,A,3,18,29,28,31,23,,,,,,,,2.9,1.5,2.5*31
$GPRMC,142015.000,A,3306.6708,S,06417.9116,W,2.35,96.44,121124,,,A*58
$GPGGA,142016.000,3306.6708,S,06417.9107,W,1,05,1.5,433.1,M,21.4,M,,0000*54
$GPGSA,A,3,18,29,28,31,23,,,,,,,,2.9,1.5,2.5*31
$GPRMC,142016.000,A,3306.6708,S,06417.9107,W,2.45,94.79,121124,,,A*50
$GPGGA,142017.000,3306.6710,S,06417.9101,W,1,05,1.5,433.6,M,21.4,M,,0000*5D
$GPGSA,A,3,18,29,28,31,23,,,,,,,,2.9,1.5,2.5*31
$GPGSV,3,1,12,18,75,308,31,29,52,142,30,28,36,296,28,31,32,255,18*72
$GPGSV,3,2,12,23,17,010,29,12,03,332,32,20,00,000,15,25,65,105,34*74
$GPGSV,3,3,12,26,33,225,04,24,68,215,,16,64,012,,32,57,207,*71
$GPRMC,142017.000,A,3306.6710,S,06417.9101,W,2.23,95.07,121124,,,A*56
$GPGGA,142018.000,3306.6710,S,06417.9094,W,1,05,1.5,433.6,M,21.4,M,,0000*5F
$GPGSA,A,3,18,29,28,31,23,,,,,,,,2.9,1.5,2.5*31
$GPRMC,142018.000,A,3306.6710,S,06417.9094,W,2.11,95.07,121124,,,A*55
$GPGGA,142019.000,3306.6711,S,06417.9086,W,1,05,1.5,433.6,M,21.4,M,,0000*5C
$GPGSA,A,3,18,29,28,31,23,,,,,,,,2.9,1.5,2.5*31
$GPRMC,142019.000,A,3306.6711,S,06417.9086,W,2.41,94.36,121124,,,A*50
$GPGGA,142020.000,3306.6710,S,06417.9079,W,1,05,1.5,433.7,M,21.4,M,,0000*56
$GPGSA,A,3,18,29,28,31,23,,,,,,,,2.9,1.5,2.5*31
$GPRMC,142020.000,A,3306.6710,S,06417.9079,W,2.05,92.30,121124,,,A*5B
$GPGGA,142021.000,3306.6712,S,06417.9073,W,1,05,1.5,433.6,M,21.4,M,,0000*5E
$GPGSA,A,3,18,29,28,31,23,,,,,,,,2.9,1.5,2.5*31
$GPRMC,142021.000,A,3306.6712,S,06417.9073,W,1.84,95.01,121124,,,A*5D
$GPGGA,142022.000,3306.6714,S,06417.9068,W,1,05,1.5,433.6,M,21.4,M,,0000*51
$GPGSA,A,3,18,29,28,31,23,,,,,,,,2.9,1.5,2.5*31
$GPGSV,3,1,12,18,75,308,31,29,52,142,37,28,36,296,28,31,32,255,18*75
$GPGSV,3,2,12,23,17,010,24,12,03,332,32,20,00,000,14,25,65,105,35*79
$GPGSV,3,3,12,26,33,225,04,24,68,215,,16,64,012,,32,57,207,*71
$GPRMC,142022.000,A,3306.6714,S,06417.9068,W,2.04,101.68,121124,,,A*6A
$GPGGA,142023.000,3306.6715,S,06417.9060,W,1,05,1.5,433.6,M,21.4,M,,0000*59
$GPGSA,A,3,18,29,28,31,23,,,,,,,,2.9,1.5,2.5*31
$GPRMC,142023.000,A,3306.6715,S,06417.9060,W,2.17,101.51,121124,,,A*6A
$GPGGA,142024.000,3306.6717,S,06417.9053,W,1,06,1.3,433.5,M,21.4,M,,0000*5A
$GPGSA,A,3,18,29,28,26,31,23,,,,,,,2.6,1.3,2.2*3B
$GPRMC,142024.000,A,3306.6717,S,06417.9053,W,2.44,105.21,121124,,,A*6A
$GPGGA,142025.000,3306.6720,S,06417.9046,W,1,06,1.3,433.4,M,21.4,M,,0000*5A
$GPGSA,A,3,18,29,28,26,31,23,,,,,,,2.6,1.3,2.2*3B
$GPRMC,142025.000,A,3306.6720,S,06417.9046,W,2.39,107.83,121124,,,A*6B
$GPGGA,142026.000,3306.6722,S,06417.9037,W,1,06,1.3,433.3,M,21.4,M,,0000*5A
$GPGSA,A,3,18,29,28,26,31,23,,,,,,,2.6,1.3,2.2*3B
$GPRMC,142026.000,A,3306.6722,S,06417.9037,W,2.25,108.13,121124,,,A*67
$GPGGA,142027.000,3306.6721,S,06417.9028,W,1,06,1.3,432.9,M,21.4,M,,0000*5D
$GPGSA,A,3,18,29,28,26,31,23,,,,,,,2.6,1.3,2.2*3B
$GPGSV,3,1,12,18,75,308,32,29,52,142,36,28,36,296,28,26,33,225,22*7E
$GPGSV,3,2,12,31,32,255,32,23,17,010,34,12,03,332,22,20,00,000,23*7B
$GPGSV,3,3,12,25,65,105,41,24,68,215,,16,64,012,,32,57,207,*71
$GPRMC,142027.000,A,3306.6721,S,06417.9028,W,2.21,104.18,121124,,,A*68
$GPGGA,142028.000,3306.6720,S,06417.9018,W,1,06,1.3,432.4,M,21.4,M,,0000*5D
$GPGSA,A,3,18,29,28,26,31,23,,,,,,,2.6,1.3,2.2*3B
$GPRMC,142028.000,A,3306.6720,S,06417.9018,W,2.22,105.12,121124,,,A*6D
$GPGGA,142029.000,3306.6724,S,06417.9012,W,1,06,1.3,432.2,M,21.4,M,,0000*54
$GPGSA,A,3,18,29,28,26,31,23,,,,,,,2.6,1.3,2.2*3B
$GPRMC,142029.000,A,3306.6724,S,06417.9012,W,2.24,113.37,121124,,,A*64
$GPGGA,142030.000,3306.6728,S,06417.9006,W,1,06,1.3,432.4,M,21.4,M,,0000*53
$GPGSA,A,3,18,29,28,26,31,23,,,,,,,2.6,1.3,2.2*3B
$GPRMC,142030.000,A,3306.6728,S,06417.9006,W,2.05,115.88,121124,,,A*64
$GPGGA,142031.000,3306.6731,S,06417.9000,W,1,06,1.3,432.3,M,21.4,M,,0000*5B
$GPGSA,A,3,18,29,28,26,31,23,,,,,,,2.6,1.3,2.2*3B
$GPRMC,142031.000,A,3306.6731,S,06417.9000,W,1.72,115.84,121124,,,A*64
$GPGGA,142032.000,3306.6732,S,06417.8996,W,1,06,1.3,432.5,M,21.4,M,,0000*5A
$GPGSA,A,3,18,29,28,26,31,23,,,,,,,2.6,1.3,2.2*3B
$GPGSV,3,1,12,18,75,308,28,29,52,142,37,28,36,296,34,26,33,225,22*79
$GPGSV,3,2,12,31,32,255,22,23,17,010,21,12,03,332,25,20,00,000,23*79
$GPGSV,3,3,12,25,65,105,31,24,68,215,,16,64,012,,32,57,207,*76
$GPRMC,142032.000,A,3306.6732,S,06417.8996,W,1.59,116.43,121124,,,A*62
$GPGGA,142033.000,3306.6735,S,06417.8991,W,1,06,1.3,432.6,M,21.4,M,,0000*58
$GPGSA,A,3,18,29,28,26,31,23,,,,,,,2.6,1.3,2.2*3B
$GPRMC,142033.000,A,3306.6735,S,06417.8991,W,1.70,118.77,121124,,,A*61
$GPGGA,142034.000,3306.6740,S,06417.8989,W,1,06,1.3,432.6,M,21.4,M,,0000*54
$GPGSA,A,3,18,29,28,26,31,23,,,,,,,2.6,1.3,2.2*3B
$GPRMC,142034.000,A,3306.6740,S,06417.8989,W,1.74,125.37,121124,,,A*63
$GPGGA,142035.000,3306.6746,S,06417.8989,W,1,06,1.3,432.6,M,21.4,M,,0000*53
$GPGSA,A,3,18,29,28,26,31,23,,,,,,,2.6,1.3,2.2*3B
$GPRMC,142035.000,A,3306.6746,S,06417.8989,W,1.83,138.13,121124,,,A*66
$GPGGA,142036.000,3306.6754,S,06417.8991,W,1,06,1.3,432.6,M,21.4,M,,0000*5A
$GPGSA,A,3,18,29,28,26,31,23,,,,,,,2.6,1.3,2.2*3B
$GPRMC,142036.000,A,3306.6754,S,06417.8991,W,2.36,154.44,121124,,,A*6A
$GPGGA,142037.000,3306.6763,S,06417.8993,W,1,06,1.3,432.6,M,21.4,M,,0000*5D
$GPGSA,A,3,18,29,28,26,31,23,,,,,,,2.6,1.3,2.2*3B
$GPGSV,3,1,12,18,75,308,28,29,52,142,36,28,36,296,22,26,33,225,26*7B
$GPGSV,3,2,12,31,32,255,24,23,17,010,22,12,03,332,31,20,00,000,21*7B
$GPGSV,3,3,12,25,65,105,30,24,68,215,,16,64,012,,32,57,207,*77
$GPRMC,142037.000,A,3306.6763,S,06417.8993,W,3.04,169.07,121124,,,A*64
$GPGGA,142038.000,3306.6771,S,06417.8994,W,1,06,1.3,432.5,M,21.4,M,,0000*55
$GPGSA,A,3,18,29,28,26,31,23,,,,,,,2.6,1.3,2.2*3B
$GPRMC,142038.000,A,3306.6771,S,06417.8994,W,2.86,176.30,121124,,,A*6E
$GPGGA,142039.000,3306.6778,S,06417.8994,W,1,06,1.3,432.6,M,21.4,M,,0000*5E
$GPGSA,A,3,18,29,28,26,31,23,,,,,,,2.6,1.3,2.2*3B
$GPRMC,142039.000,A,3306.6778,S,06417.8994,W,2.75,175.41,121124,,,A*6F
$GPGGA,142040.000,3306.6784,S,06417.8993,W,1,06,1.3,432.7,M,21.4,M,,0000*55
$GPGSA,A,3,18,29,28,26,31,23,,,,,,,2.6,1.3,2.2*3B
$GPRMC,142040.000,A,3306.6784,S,06417.8993,W,2.03,177.70,121124,,,A*64
$GPGGA,142041.000,3306.6790,S,06417.8993,W,1,06,1.3,432.8,M,21.4,M,,0000*5E
$GPGSA,A,3,18,29,28,26,31,23,,,,,,,2.6,1.3,2.2*3B
$GPRMC,142041.000,A,3306.6790,S,06417.8993,W,2.03,177.91,121124,,,A*6F
$GPGGA,142042.000,3306.6797,S,06417.8993,W,1,06,1.3,432.9,M,21.4,M,,0000*5B
$GPGSA,A,3,18,29,28,26,31,23,,,,,,,2.6,1.3,2.2*3B
$GPGSV,3,1,12,18,75,308,25,29,52,142,35,28,36,296,32,26,33,225,31*72
$GPGSV,3,2,12,31,32,255,31,23,17,010,23,12,03,332,20,20,00,000,21*7E
$GPGSV,3,3,12,25,65,105,30,24,68,215,,16,64,012,,32,57,207,*77
$GPRMC,142042.000,A,3306.6797,S,06417.8993,W,2.07,176.34,121124,,,A*61
$GPGGA,142043.000,3306.6804,S,06417.8994,W,1,06,1.3,433.1,M,21.4,M,,0000*51
$GPGSA,A,3,18,29,28,26,31,23,,,,,,,2.6,1.3,2.2*3B
$GPRMC,142043.000,A,3306.6804,S,06417.8994,W,2.03,178.53,121124,,,A*69
$GPGGA,142044.000,3306.6809,S,06417.8994,W,1,06,1.3,433.1,M,21.4,M,,0000*5B
$GPGSA,A,3,18,29,28,26,31,23,,,,,,,2.6,1.3,2.2*3B
$GPRMC,142044.000,A,3306.6809,S,06417.8994,W,1.68,179.68,121124,,,A*64
$GPGGA,142045.000,3306.6816,S,06417.8994,W,1,06,1.3,433.3,M,21.4,M,,0000*56
$GPGSA,A,3,18,29,28,26,31,23,,,,,,,2.6,1.3,2.2*3B
$GPRMC,142045.000,A,3306.6816,S,06417.8994,W,2.18,183.29,121124,,,A*6F
$GPGGA,142046.000,3306.6823,S,06417.8996,W,1,06,1.3,433.2,M,21.4,M,,0000*50
$GPGSA,A,3,18,29,28,26,31,23,,,,,,,2.6,1.3,2.2*3B
$GPRMC,142046.000,A,3306.6823,S,06417.8996,W,2.29,187.70,121124,,,A*62
$GPGGA,142047.000,3306.6830,S,06417.8997,W,1,06,1.3,433.3,M,21.4,M,,0000*53
$GPGSA,A,3,18,29,28,26,31,23,,,,,,,2.6,1.3,2.2*3B
$GPGSV,3,1,12,18,75,308,26,29,52,142,35,28,36,296,30,26,33,225,28*7B
$GPGSV,3,2,12,31,32,255,31,23,17,010,22,12,03,332,18,20,00,000,21*74
$GPGSV,3,3,12,25,65,105,29,24,68,215,,16,64,012,,32,57,207,*7F
$GPRMC,142047.000,A,3306.6830,S,06417.8997,W,2.29,186.19,121124,,,A*6E
$GPGGA,142048.000,3306.6836,S,06417.8997,W,1,06,1.3,433.3,M,21.4,M,,0000*5A
$GPGSA,A,3,18,29,28,26,31,23,,,,,,,2.6,1.3,2.2*3B
$GPRMC,142048.000,A,3306.6836,S,06417.8997,W,1.92,185.79,121124,,,A*61
$GPGGA,142049.000,3306.6840,S,06417.8998,W,1,06,1.3,433.4,M,21.4,M,,0000*52
$GPGSA,A,3,18,29,28,26,31,23,,,,,,,2.6,1.3,2.2*3B
$GPRMC,142049.000,A,3306.6840,S,06417.8998,W,1.69,187.00,121124,,,A*66
$GPGGA,142050.000,3306.6846,S,06417.8999,W,1,06,1.3,433.5,M,21.4,M,,0000*5C
$GPGSA,A,3,18,29,28,26,31,23,,,,,,,2.6,1.3,2.2*3B
$GPRMC,142050.000,A,3306.6846,S,06417.8999,W,2.08,186.08,121124,,,A*64
$GPGGA,142051.000,3306.6852,S,06417.8999,W,1,06,1.3,433.6,M,21.4,M,,0000*5B
$GPGSA,A,3,18,29,28,26,31,23,,,,,,,2.6,1.3,2.2*3B
$GPRMC,142051.000,A,3306.6852,S,06417.8999,W,2.23,180.58,121124,,,A*6A
$GPGGA,142052.000,3306.6858,S,06417.9000,W,1,06,1.3,433.7,M,21.4,M,,0000*5B
$GPGSA,A,3,18,29,28,26,31,23,,,,,,,2.6,1.3,2.2*3B
$GPGSV,3,1,12,18,75,308,27,29,52,142,35,28,36,296,33,26,33,225,30*70
$GPGSV,3,2,12,31,32,255,31,23,17,010,23,12,03,332,18,20,00,000,20*74
$GPGSV,3,3,12,25,65,105,29,24,68,215,,16,64,012,,32,57,207,*7F
$GPRMC,142052.000,A,3306.6858,S,06417.9000,W,2.36,186.45,121124,,,A*65
$GPGGA,142053.000,3306.6863,S,06417.9001,W,1,06,1.3,433.8,M,21.4,M,,0000*5C
$GPGSA,A,3,18,29,28,26,31,23,,,,,,,2.6,1.3,2.2*3B
$GPRMC,142053.000,A,3306.6863,S,06417.9001,W,1.59,189.35,121124,,,A*6F
$GPGGA,142054.000,3306.6867,S,06417.9003,W,1,06,1.3,433.9,M,21.4,M,,0000*5C
$GPGSA,A,3,18,29,28,26,31,23,,,,,,,2.6,1.3,2.2*3B
$GPRMC,142054.000,A,3306.6867,S,06417.9003,W,1.28,190.78,121124,,,A*69
$GPGGA,142055.000,3306.6872,S,06417.9003,W,1,06,1.3,433.9,M,21.4,M,,0000*59
$GPGSA,A,3,18,29,28,26,31,23,,,,,,,2.6,1.3,2.2*3B
$GPRMC,142055.000,A,3306.6872,S,06417.9003,W,1.67,186.80,121124,,,A*67
$GPGGA,142056.000,3306.6879,S,06417.9003,W,1,06,1.3,434.0,M,21.4,M,,0000*5F
$GPGSA,A,3,18,29,28,26,31,23,,,,,,,2.6,1.3,2.2*3B
$GPRMC,142056.000,A,3306.6879,S,06417.9003,W,2.06,180.67,121124,,,A*64
$GPGGA,142057.000,3306.6886,S,06417.9004,W,1,06,1.3,433.9,M,21.4,M,,0000*57
$GPGSA,A,3,18,29,28,26,31,23,,,,,,,2.6,1.3,2.2*3B
$GPGSV,3,1,12,18,75,308,27,29,52,142,34,28,36,296,27,26,33,225,30*74
$GPGSV,3,2,12,31,32,255,31,23,17,010,23,12,03,332,18,20,00,000,14*73
$GPGSV,3,3,12,25,65,105,29,24,68,215,,16,64,012,,32,57,207,*7F
$GPRMC,142057.000,A,3306.6886,S,06417.9004,W,2.02,180.59,121124,,,A*6B
$GPGGA,142058.000,3306.6892,S,06417.9004,W,1,06,1.3,433.9,M,21.4,M,,0000*5D
$GPGSA,A,3,18,29,28,26,31,23,,,,,,,2.6,1.3,2.2*3B
$GPRMC,142058.000,A,3306.6892,S,06417.9004,W,2.39,183.20,121124,,,A*64
$GPGGA,142059.000,3306.6901,S,06417.9005,W,1,06,1.3,433.9,M,21.4,M,,0000*56
$GPGSA,A,3,18,29,28,26,31,23,,,,,,,2.6,1.3,2.2*3B
$GPRMC,142059.000,A,3306.6901,S,06417.9005,W,2.60,184.39,121124,,,A*6C
$GPGGA,142100.000,3306.6908,S,06417.9007,W,1,06,1.3,433.8,M,21.4,M,,0000*51
$GPGSA,A,3,18,29,28,26,31,23,,,,,,,2.6,1.3,2.2*3B
$GPRMC,142100.000,A,3306.6908,S,06417.9007,W,2.41,187.23,121124,,,A*61
$GPGGA,142101.000,3306.6914,S,06417.9010,W,1,06,1.3,434.1,M,21.4,M,,0000*55
$GPGSA,A,3,18,29,28,26,31,23,,,,,,,2.6,1.3,2.2*3B
$GPRMC,142101.000,A,3306.6914,S,06417.9010,W,2.40,191.21,121124,,,A*6F
$GPGGA,142102.000,3306.6920,S,06417.9013,W,1,06,1.3,434.2,M,21.4,M,,0000*51
$GPGSA,A,3,18,29,28,26,31,23,,,,,,,2.6,1.3,2.2*3B
$GPGSV,3,1,12,18,75,308,27,29,52,142,34,28,36,296,24,26,33,225,28*7E
$GPGSV,3,2,12,31,32,255,24,23,17,010,24,12,03,332,18,20,00,000,16*72
$GPGSV,3,3,12,25,65,105,28,24,68,215,,16,64,012,,32,57,207,*7E
$GPRMC,142102.000,A,3306.6920,S,06417.9013,W,2.14,193.75,121124,,,A*6A
$GPGGA,142103.000,3306.6926,S,06417.9015,W,1,06,1.3,434.3,M,21.4,M,,0000*51
$GPGSA,A,3,18,29,28,26,31,23,,,,,,,2.6,1.3,2.2*3B
$GPRMC,142103.000,A,3306.6926,S,06417.9015,W,1.95,194.94,121124,,,A*69
$GPGGA,142104.000,3306.6931,S,06417.9017,W,1,06,1.3,434.4,M,21.4,M,,0000*55
$GPGSA,A,3,18,29,28,26,31,23,,,,,,,2.6,1.3,2.2*3B
$GPRMC,142104.000,A,3306.6931,S,06417.9017,W,1.63,195.89,121124,,,A*6E
$GPGGA,142105.000,3306.6937,S,06417.9017,W,1,06,1.3,434.3,M,21.4,M,,0000*55
$GPGSA,A,3,18,29,28,26,31,23,,,,,,,2.6,1.3,2.2*3B
$GPRMC,142105.000,A,3306.6937,S,06417.9017,W,1.96,189.62,121124,,,A*6B
$GPGGA,142106.000,3306.6943,S,06417.9018,W,1,06,1.3,434.5,M,21.4,M,,0000*5C
$GPGSA,A,3,18,29,28,26,31,23,,,,,,,2.6,1.3,2.2*3B
$GPRMC,142106.000,A,3306.6943,S,06417.9018,W,2.30,189.89,121124,,,A*6E
$GPGGA,142107.000,3306.6951,S,06417.9019,W,1,06,1.3,434.7,M,21.4,M,,0000*5D
$GPGSA,A,3,18,29,28,26,31,23,,,,,,,2.6,1.3,2.2*3B
$GPGSV,3,1,12,18,75,308,27,29,52,142,35,28,36,296,24,26,33,225,29*7E
$GPGSV,3,2,12,31,32,255,31,23,17,010,24,12,03,332,18,20,00,000,15*75
$GPGSV,3,3,12,25,65,105,28,24,68,215,,16,64,012,,32,57,207,*7E
$GPRMC,142107.000,A,3306.6951,S,06417.9019,W,2.72,187.55,121124,,,A*64
$GPGGA,142108.000,3306.6960,S,06417.9020,W,1,06,1.3,434.8,M,21.4,M,,0000*55
$GPGSA,A,3,18,29,28,26,31,23,,,,,,,2.6,1.3,2.2*3B
$GPRMC,142108.000,A,3306.6960,S,06417.9020,W,2.71,186.44,121124,,,A*61
$GPGGA,142109.000,3306.6967,S,06417.9021,W,1,06,1.3,434.9,M,21.4,M,,0000*53
$GPGSA,A,3,18,29,28,26,31,23,,,,,,,2.6,1.3,2.2*3B
$GPRMC,142109.000,A,3306.6967,S,06417.9021,W,2.60,187.02,121124,,,A*65
$GPGGA,142110.000,3306.6975,S,06417.9022,W,1,06,1.3,435.0,M,21.4,M,,0000*53
$GPGSA,A,3,18,29,28,26,31,23,,,,,,,2.6,1.3,2.2*3B
$GPRMC,142110.000,A,3306.6975,S,06417.9022,W,2.31,183.58,121124,,,A*62
$GPGGA,142111.000,3306.6981,S,06417.9022,W,1,06,1.3,434.9,M,21.4,M,,0000*51
$GPGSA,A,3,18,29,28,26,31,23,,,,,,,2.6,1.3,2.2*3B
$GPRMC,142111.000,A,3306.6981,S,06417.9022,W,2.22,179.56,121124,,,A*61
$GPGGA,142112.000,3306.6987,S,06417.9021,W,1,06,1.3,434.8,M,21.4,M,,0000*56
$GPGSA,A,3,18,29,28,26,31,23,,,,,,,2.6,1.3,2.2*3B
$GPGSV,3,1,12,18,75,308,26,29,52,142,35,28,36,296,22,26,33,225,29*79
$GPGSV,3,2,12,31,32,255,30,23,17,010,23,12,03,332,18,20,00,000,15*73
$GPGSV,3,3,12,25,65,105,29,24,68,215,,16,64,012,,32,57,207,*7F
$GPRMC,142112.000,A,3306.6987,S,06417.9021,W,2.21,180.31,121124,,,A*63
$GPGGA,142113.000,3306.6993,S,06417.9023,W,1,06,1.3,434.9,M,21.4,M,,0000*51
$GPGSA,A,3,18,29,28,26,31,23,,,,,,,2.6,1.3,2.2*3B
$GPRMC,142113.000,A,3306.6993,S,06417.9023,W,2.23,184.22,121124,,,A*61
$GPGGA,142114.000,3306.7000,S,06417.9023,W,1,06,1.3,435.1,M,21.4,M,,0000*5D
$GPGSA,A,3,18,29,28,26,31,23,,,,,,,2.6,1.3,2.2*3B
$GPRMC,142114.000,A,3306.7000,S,06417.9023,W,2.47,184.06,121124,,,A*60
$GPGGA,142115.000,3306.7010,S,06417.9023,W,1,06,1.3,435.1,M,21.4,M,,0000*5D
$GPGSA,A,3,18,29,28,26,31,23,,,,,,,2.6,1.3,2.2*3B
$GPRMC,142115.000,A,3306.7010,S,06417.9023,W,2.89,181.42,121124,,,A*67
$GPGGA,142116.000,3306.7019,S,06417.9024,W,1,06,1.3,435.1,M,21.4,M,,0000*50
$GPGSA,A,3,18,29,28,26,31,23,,,,,,,2.6,1.3,2.2*3B
$GPRMC,142116.000,A,3306.7019,S,06417.9024,W,2.72,182.13,121124,,,A*69
$GPGGA,142117.000,3306.7026,S,06417.9025,W,1,06,1.3,435.1,M,21.4,M,,0000*5C
$GPGSA,A,3,18,29,28,26,31,23,,,,,,,2.6,1.3,2.2*3B
$GPGSV,3,1,12,18,75,308,20,29,52,142,34,28,36,296,28,26,33,225,30*7C
$GPGSV,3,2,12,31,32,255,30,23,17,010,20,12,03,332,18,20,00,000,14*71
$GPGSV,3,3,12,25,65,105,28,24,68,215,,16,64,012,,32,57,207,*7E
$GPRMC,142117.000,A,3306.7026,S,06417.9025,W,2.50,187.30,121124,,,A*61
$GPGGA,142118.000,3306.7031,S,06417.9026,W,1,06,1.3,435.1,M,21.4,M,,0000*56
$GPGSA,A,3,18,29,28,26,31,23,,,,,,,2.6,1.3,2.2*3B
$GPRMC,142118.000,A,3306.7031,S,06417.9026,W,2.00,185.79,121124,,,A*61
$GPGGA,142119.000,3306.7040,S,06417.9027,W,1,06,1.3,435.0,M,21.4,M,,0000*51
$GPGSA,A,3,18,29,28,26,31,23,,,,,,,2.6,1.3,2.2*3B
$GPRMC,142119.000,A,3306.7040,S,06417.9027,W,2.46,190.13,121124,,,A*6D
$GPGGA,142120.000,3306.7047,S,06417.9029,W,1,06,1.3,435.2,M,21.4,M,,0000*50
$GPGSA,A,3,18,29,28,26,31,23,,,,,,,2.6,1.3,2.2*3B
$GPRMC,142120.000,A,3306.7047,S,06417.9029,W,2.53,189.79,121124,,,A*6E
$GPGGA,142121.000,3306.7055,S,06417.9030,W,1,06,1.3,435.1,M,21.4,M,,0000*59
$GPGSA,A,3,18,29,28,26,31,23,,,,,,,2.6,1.3,2.2*3B
$GPRMC,142121.000,A,3306.7055,S,06417.9030,W,2.60,187.45,121124,,,A*65
$GPGGA,142122.000,3306.7062,S,06417.9030,W,1,06,1.3,435.0,M,21.4,M,,0000*5F
$GPGSA,A,3,18,29,28,26,31,23,,,,,,,2.6,1.3,2.2*3B
$GPGSV,3,1,12,18,75,308,25,29,52,142,34,28,36,296,30,26,33,225,24*75
$GPGSV,3,2,12,31,32,255,30,23,17,010,21,12,03,332,18,20,00,000,13*77
$GPGSV,3,3,12,25,65,105,28,24,68,215,,16,64,012,,32,57,207,*7E
$GPRMC,142122.000,A,3306.7062,S,06417.9030,W,2.18,185.08,121124,,,A*66
$GPGGA,142123.000,3306.7069,S,06417.9030,W,1,06,1.3,435.0,M,21.4,M,,0000*55
$GPGSA,A,3,18,29,28,26,31,23,,,,,,,2.6,1.3,2.2*3B
$GPRMC,142123.000,A,3306.7069,S,06417.9030,W,2.50,181.49,121124,,,A*61
$GPGGA,142124.000,3306.7076,S,06417.9029,W,1,06,1.3,435.0,M,21.4,M,,0000*54
$GPGSA,A,3,18,29,28,26,31,23,,,,,,,2.6,1.3,2.2*3B
$GPRMC,142124.000,A,3306.7076,S,06417.9029,W,2.57,175.26,121124,,,A*65
$GPGGA,142125.000,3306.7084,S,06417.9029,W,1,06,1.3,435.1,M,21.4,M,,0000*59
$GPGSA,A,3,18,29,28,26,31,23,,,,,,,2.6,1.3,2.2*3B
$GPRMC,142125.000,A,3306.7084,S,06417.9029,W,2.43,176.63,121124,,,A*6E
$GPGGA,142126.000,3306.7091,S,06417.9031,W,1,06,1.3,435.1,M,21.4,M,,0000*57
$GPGSA,A,3,18,29,28,26,31,23,,,,,,,2.6,1.3,2.2*3B
$GPRMC,142126.000,A,3306.7091,S,06417.9031,W,2.36,182.16,121124,,,A*6B
$GPGGA,142127.000,3306.7096,S,06417.9032,W,1,06,1.3,435.1,M,21.4,M,,0000*52
$GPGSA,A,3,18,29,28,26,31,23,,,,,,,2.6,1.3,2.2*3B
$GPGSV,3,1,12,18,75,308,25,29,52,142,34,28,36,296,21,26,33,225,29*78
$GPGSV,3,2,12,31,32,255,26,23,17,010,21,12,03,332,17,20,00,000,13*7F
$GPGSV,3,3,12,25,65,105,28,24,68,215,,16,64,012,,32,57,207,*7E
$GPRMC,142127.000,A,3306.7096,S,06417.9032,W,1.97,183.06,121124,,,A*66
$GPGGA,142128.000,3306.7103,S,06417.9035,W,1,06,1.3,435.0,M,21.4,M,,0000*56
$GPGSA,A,3,18,29,28,26,31,23,,,,,,,2.6,1.3,2.2*3B
$GPRMC,142128.000,A,3306.7103,S,06417.9035,W,2.25,187.52,121124,,,A*6C
$GPGGA,142129.000,3306.7109,S,06417.9036,W,1,06,1.3,435.1,M,21.4,M,,0000*5F
$GPGSA,A,3,18,29,28,26,31,23,,,,,,,2.6,1.3,2.2*3B
$GPRMC,142129.000,A,3306.7109,S,06417.9036,W,2.03,185.90,121124,,,A*6C
$GPGGA,142130.000,3306.7116,S,06417.9037,W,1,06,1.3,434.9,M,21.4,M,,0000*51
$GPGSA,A,3,18,29,28,26,31,23,,,,,,,2.6,1.3,2.2*3B
$GPRMC,142130.000,A,3306.7116,S,06417.9037,W,2.27,186.22,121124,,,A*67
$GPGGA,142131.000,3306.7126,S,06417.9038,W,1,06,1.3,435.0,M,21.4,M,,0000*54
$GPGSA,A,3,18,29,28,26,31,23,,,,,,,2.6,1.3,2.2*3B
$GPRMC,142131.000,A,3306.7126,S,06417.9038,W,2.66,183.09,121124,,,A*63
$GPGGA,142132.000,3306.7134,S,06417.9038,W,1,06,1.3,434.8,M,21.4,M,,0000*5D
$GPGSA,A,3,18,29,28,26,31,23,,,,,,,2.6,1.3,2.2*3B
$GPGSV,3,1,12,18,75,308,25,29,52,142,35,28,36,296,30,26,33,225,33*72
$GPGSV,3,2,12,31,32,255,24,23,17,010,28,12,03,332,17,20,00,000,12*75
$GPGSV,3,3,12,25,65,105,28,24,68,215,,16,64,012,,32,57,207,*7E
$GPRMC,142132.000,A,3306.7134,S,06417.9038,W,2.60,183.06,121124,,,A*6A
$GPGGA,142133.000,3306.7141,S,06417.9038,W,1,06,1.3,434.8,M,21.4,M,,0000*5E
$GPGSA,A,3,18,29,28,26,31,23,,,,,,,2.6,1.3,2.2*3B
$GPRMC,142133.000,A,3306.7141,S,06417.9038,W,2.10,183.68,121124,,,A*66
$GPGGA,142134.000,3306.7146,S,06417.9039,W,1,06,1.3,434.7,M,21.4,M,,0000*50
$GPGSA,A,3,18,29,28,26,31,23,,,,,,,2.6,1.3,2.2*3B
$GPRMC,142134.000,A,3306.7146,S,06417.9039,W,1.86,182.54,121124,,,A*65
$GPGGA,142135.000,3306.7150,S,06417.9040,W,1,06,1.3,434.7,M,21.4,M,,0000*58
$GPGSA,A,3,18,29,28,26,31,23,,,,,,,2.6,1.3,2.2*3B
$GPRMC,142135.000,A,3306.7150,S,06417.9040,W,1.38,185.06,121124,,,A*68
$GPGGA,142136.000,3306.7155,S,06417.9042,W,1,06,1.3,434.7,M,21.4,M,,0000*5C
$GPGSA,A,3,18,29,28,26,31,23,,,,,,,2.6,1.3,2.2*3B
$GPRMC,142136.000,A,3306.7155,S,06417.9042,W,1.89,187.41,121124,,,A*67
$GPGGA,142137.000,3306.7162,S,06417.9046,W,1,06,1.3,434.8,M,21.4,M,,0000*52
$GPGSA,A,3,18,29,28,26,31,23,,,,,,,2.6,1.3,2.2*3B
$GPGSV,3,1,12,18,75,308,34,29,52,142,40,28,36,296,34,26,33,225,32*75
$GPGSV,3,2,12,31,32,255,34,23,17,010,24,12,03,332,18,20,00,000,13*76
$GPGSV,3,3,12,25,65,105,29,24,68,215,,16,64,012,,32,57,207,*7F
$GPRMC,142137.000,A,3306.7162,S,06417.9046,W,2.41,196.06,121124,,,A*62
$GPGGA,142138.000,3306.7166,S,06417.9052,W,1,06,1.3,434.9,M,21.4,M,,0000*5D
$GPGSA,A,3,18,29,28,26,31,23,,,,,,,2.6,1.3,2.2*3B
$GPRMC,142138.000,A,3306.7166,S,06417.9052,W,2.49,212.47,121124,,,A*6E
$GPGGA,142139.000,3306.7170,S,06417.9059,W,1,06,1.3,434.8,M,21.4,M,,0000*51
$GPGSA,A,3,18,29,28,26,31,23,,,,,,,2.6,1.3,2.2*3B
$GPRMC,142139.000,A,3306.7170,S,06417.9059,W,2.87,225.36,121124,,,A*63
$GPGGA,142140.000,3306.7174,S,06417.9067,W,1,06,1.3,434.8,M,21.4,M,,0000*56
$GPGSA,A,3,18,29,28,26,31,23,,,,,,,2.6,1.3,2.2*3B
$GPRMC,142140.000,A,3306.7174,S,06417.9067,W,2.90,235.75,121124,,,A*64
$GPGGA,142141.000,3306.7174,S,06417.9076,W,1,06,1.3,434.8,M,21.4,M,,0000*57
$GPGSA,A,3,18,29,28,26,31,23,,,,,,,2.6,1.3,2.2*3B
$GPRMC,142141.000,A,3306.7174,S,06417.9076,W,2.46,261.44,121124,,,A*6D
$GPGGA,142142.000,3306.7173,S,06417.9084,W,1,06,1.3,434.7,M,21.4,M,,0000*51
$GPGSA,A,3,18,29,28,26,31,23,,,,,,,2.6,1.3,2.2*3B
$GPGSV,3,1,12,18,75,308,39,29,52,142,33,28,36,296,31,26,33,225,34*7F
$GPGSV,3,2,12,31,32,255,28,23,17,010,30,12,03,332,34,20,00,000,15*76
$GPGSV,3,3,12,25,65,105,36,24,68,215,,16,64,012,,32,57,207,*71
$GPRMC,142142.000,A,3306.7173,S,06417.9084,W,2.42,272.85,121124,,,A*6F
$GPGGA,142143.000,3306.7171,S,06417.9091,W,1,06,1.3,434.9,M,21.4,M,,0000*58
$GPGSA,A,3,18,29,28,26,31,23,,,,,,,2.6,1.3,2.2*3B
$GPRMC,142143.000,A,3306.7171,S,06417.9091,W,2.17,274.51,121124,,,A*67
$GPGGA,142144.000,3306.7171,S,06417.9098,W,1,06,1.3,434.9,M,21.4,M,,0000*56
$GPGSA,A,3,18,29,28,26,31,23,,,,,,,2.6,1.3,2.2*3B
$GPRMC,142144.000,A,3306.7171,S,06417.9098,W,2.09,272.98,121124,,,A*65
$GPGGA,142145.000,3306.7169,S,06417.9105,W,1,06,1.3,435.0,M,21.4,M,,0000*53
$GPGSA,A,3,18,29,28,26,31,23,,,,,,,2.6,1.3,2.2*3B
$GPRMC,142145.000,A,3306.7169,S,06417.9105,W,2.53,275.97,121124,,,A*6F
$GPGGA,142146.000,3306.7167,S,06417.9113,W,1,06,1.3,435.1,M,21.4,M,,0000*58
$GPGSA,A,3,18,29,28,26,31,23,,,,,,,2.6,1.3,2.2*3B
$GPRMC,142146.000,A,3306.7167,S,06417.9113,W,2.62,282.99,121124,,,A*61
$GPGGA,142147.000,3306.7164,S,06417.9120,W,1,06,1.3,435.1,M,21.4,M,,0000*5A
$GPGSA,A,3,18,29,28,26,31,23,,,,,,,2.6,1.3,2.2*3B
$GPGSV,3,1,12,18,75,308,37,29,52,142,32,28,36,296,32,26,33,225,23*75
$GPGSV,3,2,12,31,32,255,20,23,17,010,22,12,03,332,29,20,00,000,17*73
$GPGSV,3,3,12,25,65,105,29,24,68,215,,16,64,012,,32,57,207,*7F
$GPRMC,142147.000,A,3306.7164,S,06417.9120,W,1.99,284.85,121124,,,A*6F
$GPGGA,142148.000,3306.7166,S,06417.9130,W,1,06,1.3,435.9,M,21.4,M,,0000*5E
$GPGSA,A,3,18,29,28,26,31,23,,,,,,,2.6,1.3,2.2*3B
$GPRMC,142148.000,A,3306.7166,S,06417.9130,W,2.30,279.81,121124,,,A*65
$GPGGA,142149.000,3306.7165,S,06417.9138,W,1,06,1.3,436.1,M,21.4,M,,0000*5F
$GPGSA,A,3,18,29,28,26,31,23,,,,,,,2.6,1.3,2.2*3B
$GPRMC,142149.000,A,3306.7165,S,06417.9138,W,2.23,277.05,121124,,,A*6F
$GPGGA,142150.000,3306.7164,S,06417.9146,W,1,06,1.3,436.2,M,21.4,M,,0000*5C
$GPGSA,A,3,18,29,28,26,31,23,,,,,,,2.6,1.3,2.2*3B
$GPRMC,142150.000,A,3306.7164,S,06417.9146,W,2.27,277.15,121124,,,A*6A
$GPGGA,142151.000,3306.7164,S,06417.9154,W,1,06,1.3,436.2,M,21.4,M,,0000*5E
$GPGSA,A,3,18,29,28,26,31,23,,,,,,,2.6,1.3,2.2*3B
$GPRMC,142151.000,A,3306.7164,S,06417.9154,W,2.43,274.65,121124,,,A*6E
$GPGGA,142152.000,3306.7164,S,06417.9162,W,1,06,1.3,436.1,M,21.4,M,,0000*5B
$GPGSA,A,3,18,29,28,26,31,23,,,,,,,2.6,1.3,2.2*3B
$GPGSV,3,1,12,18,75,308,36,29,52,142,19,28,36,296,34,26,33,225,20*78
$GPGSV,3,2,12,31,32,255,19,23,17,010,23,12,03,332,20,20,00,000,16*70
$GPGSV,3,3,12,25,65,105,32,24,68,215,,16,64,012,,32,57,207,*75
$GPRMC,142152.000,A,3306.7164,S,06417.9162,W,2.49,271.97,121124,,,A*6A
$GPGGA,142153.000,3306.7166,S,06417.9171,W,1,06,1.3,436.1,M,21.4,M,,0000*5A
$GPGSA,A,3,18,29,28,26,31,23,,,,,,,2.6,1.3,2.2*3B
$GPRMC,142153.000,A,3306.7166,S,06417.9171,W,2.67,267.32,121124,,,A*6F
$GPGGA,142154.000,3306.7164,S,06417.9179,W,1,06,1.3,436.0,M,21.4,M,,0000*56
$GPGSA,A,3,18,29,28,26,31,23,,,,,,,2.6,1.3,2.2*3B
$GPRMC,142154.000,A,3306.7164,S,06417.9179,W,2.43,270.81,121124,,,A*6A
$GPGGA,142155.000,3306.7162,S,06417.9187,W,1,06,1.3,436.0,M,21.4,M,,0000*50
$GPGSA,A,3,18,29,28,26,31,23,,,,,,,2.6,1.3,2.2*3B
$GPRMC,142155.000,A,3306.7162,S,06417.9187,W,2.58,274.09,121124,,,A*62
$GPGGA,142156.000,3306.7160,S,06417.9196,W,1,06,1.3,436.1,M,21.4,M,,0000*50
$GPGSA,A,3,18,29,28,26,31,23,,,,,,,2.6,1.3,2.3*3A
$GPRMC,142156.000,A,3306.7160,S,06417.9196,W,2.67,279.88,121124,,,A*6B
$GPGGA,142157.000,3306.7157,S,06417.9204,W,1,06,1.3,436.3,M,21.4,M,,0000*5F
$GPGSA,A,3,18,29,28,26,31,23,,,,,,,2.6,1.3,2.3*3A
$GPGSV,3,1,12,18,75,308,37,29,52,142,19,28,36,296,34,26,33,225,30*78
$GPGSV,3,2,12,31,32,255,33,23,17,010,22,12,03,332,19,20,00,000,16*73
$GPGSV,3,3,12,25,65,105,37,24,68,215,,16,64,012,,32,57,207,*70
$GPRMC,142157.000,A,3306.7157,S,06417.9204,W,2.71,284.10,121124,,,A*62
$GPGGA,142158.000,3306.7153,S,06417.9212,W,1,06,1.3,436.4,M,21.4,M,,0000*54
$GPGSA,A,3,18,29,28,26,31,23,,,,,,,2.6,1.3,2.3*3A
$GPRMC,142158.000,A,3306.7153,S,06417.9212,W,2.72,298.69,121124,,,A*6E
$GPGGA,142159.000,3306.7149,S,06417.9220,W,1,06,1.3,436.6,M,21.4,M,,0000*5D
$GPGSA,A,3,18,29,28,26,31,23,,,,,,,2.6,1.3,2.3*3A
$GPRMC,142159.000,A,3306.7149,S,06417.9220,W,2.67,298.27,121124,,,A*6B
$GPGGA,142200.000,3306.7151,S,06417.9234,W,1,06,1.3,437.9,M,21.4,M,,0000*50
$GPGSA,A,3,18,29,28,26,31,23,,,,,,,2.6,1.3,2.3*3A
$GPRMC,142200.000,A,3306.7151,S,06417.9234,W,2.63,294.30,121124,,,A*66
$GPGGA,142201.000,3306.7149,S,06417.9241,W,1,06,1.3,438.2,M,21.4,M,,0000*5E
$GPGSA,A,3,18,29,28,26,31,23,,,,,,,2.6,1.3,2.3*3A
$GPRMC,142201.000,A,3306.7149,S,06417.9241,W,2.12,293.21,121124,,,A*6D
$GPGGA,142202.000,3306.7149,S,06417.9251,W,1,06,1.3,439.3,M,21.4,M,,0000*5C
$GPGSA,A,3,18,29,28,26,31,23,,,,,,,2.6,1.3,2.3*3A
$GPGSV,3,1,12,18,75,308,36,29,52,142,31,28,36,296,34,26,33,225,37*74
$GPGSV,3,2,12,31,32,255,34,23,17,010,29,12,03,332,18,20,00,000,15*7D
$GPGSV,3,3,12,25,65,105,26,24,68,215,,16,64,012,,32,57,207,*70
$GPRMC,142202.000,A,3306.7149,S,06417.9251,W,2.07,298.36,121124,,,A*66
$GPGGA,142203.000,3306.7144,S,06417.9254,W,1,06,1.3,439.4,M,21.4,M,,0000*52
$GPGSA,A,3,18,29,28,26,31,23,,,,,,,2.6,1.3,2.3*3A
$GPRMC,142203.000,A,3306.7144,S,06417.9254,W,2.29,312.24,121124,,,A*63
$GPGGA,142204.000,3306.7139,S,06417.9256,W,1,06,1.3,439.6,M,21.4,M,,0000*5F
$GPGSA,A,3,18,29,28,26,31,23,,,,,,,2.6,1.3,2.3*3A
$GPRMC,142204.000,A,3306.7139,S,06417.9256,W,2.13,336.48,121124,,,A*69
$GPGGA,142205.000,3306.7133,S,06417.9255,W,1,06,1.3,439.7,M,21.4,M,,0000*56
$GPGSA,A,3,18,29,28,26,31,23,,,,,,,2.6,1.3,2.3*3A
$GPRMC,142205.000,A,3306.7133,S,06417.9255,W,2.29,347.02,121124,,,A*60
$GPGGA,142206.000,3306.7126,S,06417.9255,W,1,06,1.3,440.0,M,21.4,M,,0000*58
$GPGSA,A,3,18,29,28,26,31,23,,,,,,,2.6,1.3,2.3*3A
$GPRMC,142206.000,A,3306.7126,S,06417.9255,W,2.36,355.09,121124,,,A*61
$GPGGA,142207.000,3306.7119,S,06417.9254,W,1,06,1.3,440.2,M,21.4,M,,0000*56
$GPGSA,A,3,18,29,28,26,31,23,,,,,,,2.6,1.3,2.3*3A
$GPGSV,3,1,12,18,75,308,37,29,52,142,24,28,36,296,35,26,33,225,32*75
$GPGSV,3,2,12,31,32,255,35,23,17,010,20,12,03,332,18,20,00,000,13*73
$GPGSV,3,3,12,25,65,105,25,24,68,215,,16,64,012,,32,57,207,*73
$GPRMC,142207.000,A,3306.7119,S,06417.9254,W,2.45,0.85,121124,,,A*6E
$GPGGA,142208.000,3306.7112,S,06417.9253,W,1,06,1.3,440.4,M,21.4,M,,0000*53
$GPGSA,A,3,18,29,28,26,31,23,,,,,,,2.6,1.3,2.3*3A
$GPRMC,142208.000,A,3306.7112,S,06417.9253,W,2.66,3.81,121124,,,A*6B
$GPGGA,142209.000,3306.7105,S,06417.9252,W,1,06,1.3,440.6,M,21.4,M,,0000*57
$GPGSA,A,3,18,29,28,26,31,23,,,,,,,2.6,1.3,2.3*3A
$GPRMC,142209.000,A,3306.7105,S,06417.9252,W,2.54,5.17,121124,,,A*65
$GPGGA,142210.000,3306.7098,S,06417.9251,W,1,06,1.3,440.7,M,21.4,M,,0000*58
$GPGSA,A,3,18,29,28,26,31,23,,,,,,,2.6,1.3,2.3*3A
$GPRMC,142210.000,A,3306.7098,S,06417.9251,W,2.35,6.98,121124,,,A*68
$GPGGA,142211.000,3306.7092,S,06417.9250,W,1,06,1.3,440.8,M,21.4,M,,0000*5D
$GPGSA,A,3,18,29,28,26,31,23,,,,,,,2.6,1.3,2.3*3A
$GPRMC,142211.000,A,3306.7092,S,06417.9250,W,2.17,8.43,121124,,,A*6A
$GPGGA,142212.000,3306.7086,S,06417.9247,W,1,06,1.3,440.8,M,21.4,M,,0000*5D
$GPGSA,A,3,18,29,28,26,31,23,,,,,,,2.6,1.3,2.3*3A
$GPGSV,3,1,12,18,75,308,32,29,52,142,23,28,36,296,30,26,33,225,29*78
$GPGSV,3,2,12,31,32,255,35,23,17,010,21,12,03,332,16,20,00,000,14*7B
$GPGSV,3,3,12,25,65,105,21,24,68,215,,16,64,012,,32,57,207,*77
$GPRMC,142212.000,A,3306.7086,S,06417.9247,W,2.03,10.87,121124,,,A*5E
$GPGGA,142213.000,3306.7081,S,06417.9245,W,1,06,1.3,440.8,M,21.4,M,,0000*59
$GPGSA,A,3,18,29,28,26,31,23,,,,,,,2.6,1.3,2.3*3A
$GPRMC,142213.000,A,3306.7081,S,06417.9245,W,1.87,13.62,121124,,,A*5D
$GPGGA,142214.000,3306.7075,S,06417.9244,W,1,06,1.3,440.8,M,21.4,M,,0000*54
$GPGSA,A,3,18,29,28,26,31,23,,,,,,,2.6,1.3,2.3*3A
$GPRMC,142214.000,A,3306.7075,S,06417.9244,W,2.07,12.73,121124,,,A*5A
$GPGGA,142215.000,3306.7070,S,06417.9244,W,1,06,1.3,440.7,M,21.4,M,,0000*5F
$GPGSA,A,3,18,29,28,26,31,23,,,,,,,2.6,1.3,2.3*3A
$GPRMC,142215.000,A,3306.7070,S,06417.9244,W,2.31,12.25,121124,,,A*58
$GPGGA,142216.000,3306.7064,S,06417.9243,W,1,06,1.3,440.6,M,21.4,M,,0000*5F
$GPGSA,A,3,18,29,28,26,31,23,,,,,,,2.6,1.3,2.3*3A
$GPRMC,142216.000,A,3306.7064,S,06417.9243,W,1.97,10.05,121124,,,A*56
$GPGGA,142217.000,3306.7058,S,06417.9242,W,1,06,1.3,440.6,M,21.4,M,,0000*50
$GPGSA,A,3,18,29,28,26,31,23,,,,,,,2.6,1.3,2.3*3A
$GPGSV,3,1,12,18,75,308,26,29,52,142,23,28,36,296,33,26,33,225,29*7E
$GPGSV,3,2,12,31,32,255,30,23,17,010,25,12,03,332,18,20,00,000,14*74
$GPGSV,3,3,12,25,65,105,24,24,68,215,,16,64,012,,32,57,207,*72
$GPRMC,142217.000,A,3306.7058,S,06417.9242,W,2.10,11.03,121124,,,A*52
$GPGGA,142218.000,3306.7053,S,06417.9239,W,1,06,1.3,440.5,M,21.4,M,,0000*5B
$GPGSA,A,3,18,29,28,26,31,23,,,,,,,2.6,1.3,2.3*3A
$GPRMC,142218.000,A,3306.7053,S,06417.9239,W,1.88,13.34,121124,,,A*5E
$GPGGA,142219.000,3306.7049,S,06417.9237,W,1,06,1.3,440.4,M,21.4,M,,0000*5E
$GPGSA,A,3,18,29,28,26,31,23,,,,,,,2.6,1.3,2.3*3A
$GPRMC,142219.000,A,3306.7049,S,06417.9237,W,1.36,15.21,121124,,,A*5D
$GPGGA,142220.000,3306.7045,S,06417.9236,W,1,06,1.3,440.2,M,21.4,M,,0000*5F
$GPGSA,A,3,18,29,28,26,31,23,,,,,,,2.6,1.3,2.3*3A
$GPRMC,142220.000,A,3306.7045,S,06417.9236,W,1.29,15.12,121124,,,A*54
$GPGGA,142221.000,3306.7038,S,06417.9236,W,1,06,1.3,439.9,M,21.4,M,,0000*51
$GPGSA,A,3,18,29,28,26,31,23,,,,,,,2.6,1.3,2.3*3A
$GPRMC,142221.000,A,3306.7038,S,06417.9236,W,1.88,13.56,121124,,,A*52
$GPGGA,142222.000,3306.7032,S,06417.9237,W,1,06,1.3,439.6,M,21.4,M,,0000*56
$GPGSA,A,3,18,29,28,26,31,23,,,,,,,2.6,1.3,2.3*3A
$GPGSV,3,1,12,18,75,308,40,29,52,142,23,28,36,296,31,26,33,225,21*74
$GPGSV,3,2,12,31,32,255,24,23,17,010,26,12,03,332,18,20,00,000,14*72
$GPGSV,3,3,12,25,65,105,24,24,68,215,,16,64,012,,32,57,207,*72
$GPRMC,142222.000,A,3306.7032,S,06417.9237,W,1.99,9.65,121124,,,A*61
$GPGGA,142223.000,3306.7023,S,06417.9240,W,1,06,1.3,439.4,M,21.4,M,,0000*55
$GPGSA,A,3,18,29,28,26,31,23,,,,,,,2.6,1.3,2.3*3A
$GPRMC,142223.000,A,3306.7023,S,06417.9240,W,2.45,2.10,121124,,,A*6B
$GPGGA,142224.000,3306.7015,S,06417.9238,W,1,06,1.3,438.9,M,21.4,M,,0000*54
$GPGSA,A,3,18,29,28,26,31,23,,,,,,,2.6,1.3,2.3*3A
$GPRMC,142224.000,A,3306.7015,S,06417.9238,W,1.98,0.95,121124,,,A*6A
$GPGGA,142225.000,3306.7009,S,06417.9235,W,1,06,1.3,438.6,M,21.4,M,,0000*5A
$GPGSA,A,3,18,29,28,26,31,23,,,,,,,2.6,1.3,2.3*3A
$GPRMC,142225.000,A,3306.7009,S,06417.9235,W,1.79,1.60,121124,,,A*6F
$GPGGA,142226.000,3306.6999,S,06417.9235,W,1,06,1.3,438.2,M,21.4,M,,0000*5C
$GPGSA,A,3,18,29,28,26,31,23,,,,,,,2.6,1.3,2.3*3A
$GPRMC,142226.000,A,3306.6999,S,06417.9235,W,2.16,358.59,121124,,,A*62
$GPGGA,142227.000,3306.6991,S,06417.9231,W,1,06,1.3,437.7,M,21.4,M,,0000*5B
$GPGSA,A,3,18,29,28,26,31,23,,,,,,,2.6,1.3,2.3*3A
$GPGSV,3,1,12,18,75,308,35,29,52,142,25,28,36,296,27,26,33,225,21*77
$GPGSV,3,2,12,31,32,255,30,23,17,010,29,12,03,332,18,20,00,000,14*78
$GPGSV,3,3,12,25,65,105,24,24,68,215,,16,64,012,,32,57,207,*72
$GPRMC,142227.000,A,3306.6991,S,06417.9231,W,2.18,0.37,121124,,,A*67
$GPGGA,142228.000,3306.6985,S,06417.9227,W,1,06,1.3,437.5,M,21.4,M,,0000*54
$GPGSA,A,3,18,29,28,26,31,23,,,,,,,2.6,1.3,2.3*3A
$GPRMC,142228.000,A,3306.6985,S,06417.9227,W,2.19,4.71,121124,,,A*6D
$GPGGA,142229.000,3306.6977,S,06417.9227,W,1,06,1.3,437.3,M,21.4,M,,0000*5E
$GPGSA,A,3,18,29,28,26,31,23,,,,,,,2.6,1.3,2.3*3A
$GPRMC,142229.000,A,3306.6977,S,06417.9227,W,2.21,2.27,121124,,,A*6F
$GPGGA,142230.000,3306.6969,S,06417.9225,W,1,06,1.3,437.3,M,21.4,M,,0000*5B
$GPGSA,A,3,18,29,28,26,31,23,,,,,,,2.6,1.3,2.3*3A
$GPRMC,142230.000,A,3306.6969,S,06417.9225,W,2.31,2.12,121124,,,A*6D
$GPGGA,142231.000,3306.6963,S,06417.9223,W,1,06,1.3,437.2,M,21.4,M,,0000*57
$GPGSA,A,3,18,29,28,26,31,23,,,,,,,2.6,1.3,2.3*3A
$GPRMC,142231.000,A,3306.6963,S,06417.9223,W,1.99,2.18,121124,,,A*6B
$GPGGA,142232.000,3306.6957,S,06417.9224,W,1,06,1.3,437.1,M,21.4,M,,0000*57
$GPGSA,A,3,18,29,28,26,31,23,,,,,,,2.6,1.3,2.3*3A
$GPGSV,3,1,12,18,75,308,31,29,52,142,25,28,36,296,32,26,33,225,22*74
$GPGSV,3,2,12,31,32,255,24,23,17,010,27,12,03,332,17,20,00,000,15*7D
$GPGSV,3,3,12,25,65,105,23,24,68,215,,16,64,012,,32,57,207,*75
$GPRMC,142232.000,A,3306.6957,S,06417.9224,W,2.03,359.64,121124,,,A*6E
$GPGGA,142233.000,3306.6950,S,06417.9221,W,1,06,1.3,436.8,M,21.4,M,,0000*5C
$GPGSA,A,3,18,29,28,26,31,23,,,,,,,2.6,1.3,2.3*3A
$GPRMC,142233.000,A,3306.6950,S,06417.9221,W,1.97,2.05,121124,,,A*69
$GPGGA,142234.000,3306.6943,S,06417.9220,W,1,06,1.3,436.9,M,21.4,M,,0000*59
$GPGSA,A,3,18,29,28,26,31,23,,,,,,,2.6,1.3,2.3*3A
$GPRMC,142234.000,A,3306.6943,S,06417.9220,W,2.34,2.59,121124,,,A*6E
$GPGGA,142235.000,3306.6935,S,06417.9221,W,1,06,1.3,436.9,M,21.4,M,,0000*58
$GPGSA,A,3,18,29,28,26,31,23,,,,,,,2.6,1.3,2.3*3A
$GPRMC,142235.000,A,3306.6935,S,06417.9221,W,2.49,1.67,121124,,,A*6B
$GPGGA,142236.000,3306.6929,S,06417.9221,W,1,06,1.3,436.8,M,21.4,M,,0000*57
$GPGSA,A,3,18,29,28,26,31,23,,,,,,,2.6,1.3,2.3*3A
$GPRMC,142236.000,A,3306.6929,S,06417.9221,W,2.45,3.04,121124,,,A*6E
$GPGGA,142237.000,3306.6922,S,06417.9220,W,1,06,1.3,436.8,M,21.4,M,,0000*5C
$GPGSA,A,3,18,29,28,26,31,23,,,,,,,2.6,1.3,2.3*3A
$GPGSV,3,1,12,18,76,304,40,29,52,140,26,28,35,298,37,26,34,225,24*75
$GPGSV,3,2,12,31,32,256,35,23,18,011,27,12,04,331,16,20,00,000,15*75
$GPGSV,3,3,12,25,64,109,22,24,68,211,,16,66,013,,32,58,206,*70
$GPRMC,142237.000,A,3306.6922,S,06417.9220,W,2.51,4.70,121124,,,A*64
$GPGGA,142238.000,3306.6915,S,06417.9219,W,1,06,1.3,436.8,M,21.4,M,,0000*5D
$GPGSA,A,3,18,29,28,26,31,23,,,,,,,2.6,1.3,2.3*3A
$GPRMC,142238.000,A,3306.6915,S,06417.9219,W,2.61,4.97,121124,,,A*6F
$GPGGA,142239.000,3306.6906,S,06417.9219,W,1,06,1.3,437.0,M,21.4,M,,0000*57
$GPGSA,A,3,18,29,28,26,31,23,,,,,,,2.6,1.3,2.3*3A
$GPRMC,142239.000,A,3306.6906,S,06417.9219,W,2.63,4.95,121124,,,A*6C
$GPGGA,142240.000,3306.6899,S,06417.9219,W,1,06,1.3,437.2,M,21.4,M,,0000*5C
$GPGSA,A,3,18,29,28,26,31,23,,,,,,,2.6,1.3,2.3*3A
$GPRMC,142240.000,A,3306.6899,S,06417.9219,W,2.22,5.51,121124,,,A*69
$GPGGA,142241.000,3306.6892,S,06417.9220,W,1,06,1.3,437.4,M,21.4,M,,0000*5A
$GPGSA,A,3,18,29,28,26,31,23,,,,,,,2.6,1.3,2.3*3A
$GPRMC,142241.000,A,3306.6892,S,06417.9220,W,1.90,3.06,121124,,,A*67
$GPGGA,142242.000,3306.6889,S,06417.9220,W,1,06,1.3,437.4,M,21.4,M,,0000*53
$GPGSA,A,3,18,29,28,26,31,23,,,,,,,2.6,1.3,2.3*3A
$GPGSV,3,1,12,18,76,304,36,29,52,140,23,28,35,298,27,26,34,225,27*73
$GPGSV,3,2,12,31,32,256,27,23,18,011,22,12,04,331,16,20,00,000,14*72
$GPGSV,3,3,12,25,64,109,20,24,68,211,,16,66,013,,32,58,206,*72
$GPRMC,142242.000,A,3306.6889,S,06417.9220,W,1.27,2.45,121124,,,A*64
$GPGGA,142243.000,3306.6883,S,06417.9224,W,1,06,1.3,437.5,M,21.4,M,,0000*5D
$GPGSA,A,3,18,29,28,26,31,23,,,,,,,2.6,1.3,2.3*3A
$GPRMC,142243.000,A,3306.6883,S,06417.9224,W,1.76,357.05,121124,,,A*68
$GPGGA,142244.000,3306.6878,S,06417.9229,W,1,06,1.3,437.7,M,21.4,M,,0000*51
$GPGSA,A,3,18,29,28,26,31,23,,,,,,,2.6,1.3,2.3*3A
$GPRMC,142244.000,A,3306.6878,S,06417.9229,W,1.82,346.56,121124,,,A*6B
$GPGGA,142245.000,3306.6874,S,06417.9231,W,1,06,1.3,437.9,M,21.4,M,,0000*5B
$GPGSA,A,3,18,29,28,26,31,23,,,,,,,2.6,1.3,2.3*3A
$GPRMC,142245.000,A,3306.6874,S,06417.9231,W,1.75,332.79,121124,,,A*69
$GPGGA,142246.000,3306.6870,S,06417.9236,W,1,06,1.3,437.9,M,21.4,M,,0000*5B
$GPGSA,A,3,18,29,28,26,31,23,,,,,,,2.6,1.3,2.3*3A
$GPRMC,142246.000,A,3306.6870,S,06417.9236,W,2.01,320.74,121124,,,A*67
$GPGGA,142247.000,3306.6865,S,06417.9242,W,1,06,1.3,437.9,M,21.4,M,,0000*5D
$GPGSA,A,3,18,29,28,26,31,23,,,,,,,2.6,1.3,2.3*3A
$GPGSV,3,1,12,18,76,304,31,29,52,140,27,28,35,298,32,26,34,225,36*74
$GPGSV,3,2,12,31,32,256,37,23,18,011,20,12,04,331,17,20,00,000,14*70
$GPGSV,3,3,12,25,64,109,23,24,68,211,,16,66,013,,32,58,206,*71
$GPRMC,142247.000,A,3306.6865,S,06417.9242,W,2.26,309.64,121124,,,A*6E
$GPGGA,142248.000,3306.6858,S,06417.9247,W,1,06,1.3,438.2,M,21.4,M,,0000*5D
$GPGSA,A,3,18,29,28,26,31,23,,,,,,,2.6,1.3,2.3*3A
$GPRMC,142248.000,A,3306.6858,S,06417.9247,W,2.45,312.66,121124,,,A*67
$GPGGA,142249.000,3306.6853,S,06417.9251,W,1,06,1.3,438.4,M,21.4,M,,0000*56
$GPGSA,A,3,18,29,28,26,31,23,,,,,,,2.6,1.3,2.3*3A
$GPRMC,142249.000,A,3306.6853,S,06417.9251,W,1.60,316.17,121124,,,A*6C
$GPGGA,142250.000,3306.6847,S,06417.9252,W,1,06,1.3,438.6,M,21.4,M,,0000*5A
$GPGSA,A,3,18,29,28,26,31,23,,,,,,,2.6,1.3,2.3*3A
$GPRMC,142250.000,A,3306.6847,S,06417.9252,W,1.80,333.28,121124,,,A*67
$GPGGA,142251.000,3306.6841,S,06417.9253,W,1,06,1.3,438.9,M,21.4,M,,0000*53
$GPGSA,A,3,18,29,28,26,31,23,,,,,,,2.6,1.3,2.3*3A
$GPRMC,142251.000,A,3306.6841,S,06417.9253,W,1.86,346.11,121124,,,A*6F
$GPGGA,142252.000,3306.6836,S,06417.9254,W,1,06,1.3,438.9,M,21.4,M,,0000*57
$GPGSA,A,3,18,29,28,26,31,23,,,,,,,2.6,1.3,2.3*3A
$GPGSV,3,1,12,18,76,304,38,29,52,140,34,28,35,298,35,26,34,225,29*76
$GPGSV,3,2,12,31,32,256,36,23,18,011,25,12,04,331,17,20,00,000,14*74
$GPGSV,3,3,12,25,64,109,22,24,68,211,,16,66,013,,32,58,206,*70
$GPRMC,142252.000,A,3306.6836,S,06417.9254,W,1.66,345.54,121124,,,A*67
$GPGGA,142253.000,3306.6830,S,06417.9255,W,1,06,1.3,438.9,M,21.4,M,,0000*51
$GPGSA,A,3,18,29,28,26,31,23,,,,,,,2.6,1.3,2.3*3A
$GPRMC,142253.000,A,3306.6830,S,06417.9255,W,2.10,346.47,121124,,,A*62
$GPGGA,142254.000,3306.6825,S,06417.9257,W,1,06,1.3,438.9,M,21.4,M,,0000*50
$GPGSA,A,3,18,29,28,26,31,23,,,,,,,2.6,1.3,2.3*3A
$GPRMC,142254.000,A,3306.6825,S,06417.9257,W,2.00,343.61,121124,,,A*63
$GPGGA,142255.000,3306.6817,S,06417.9259,W,1,06,1.3,438.9,M,21.4,M,,0000*5E
$GPGSA,A,3,18,29,28,26,31,23,,,,,,,2.6,1.3,2.3*3A
$GPRMC,142255.000,A,3306.6817,S,06417.9259,W,2.53,340.85,121124,,,A*62
$GPGGA,142256.000,3306.6809,S,06417.9262,W,1,06,1.3,439.0,M,21.4,M,,0000*52
$GPGSA,A,3,18,29,28,26,31,23,,,,,,,2.6,1.3,2.3*3A
$GPRMC,142256.000,A,3306.6809,S,06417.9262,W,2.85,340.50,121124,,,A*65
$GPGGA,142257.000,3306.6801,S,06417.9263,W,1,06,1.3,438.7,M,21.4,M,,0000*5C
$GPGSA,A,3,18,29,28,26,31,23,,,,,,,2.6,1.3,2.3*3A
$GPGSV,3,1,12,18,76,304,38,29,52,140,20,28,35,298,33,26,34,225,35*78
$GPGSV,3,2,12,31,32,256,36,23,18,011,30,12,04,331,20,20,00,000,15*75
$GPGSV,3,3,12,25,64,109,34,24,68,211,,16,66,013,,32,58,206,*77
$GPRMC,142257.000,A,3306.6801,S,06417.9263,W,2.20,338.12,121124,,,A*6B
$GPGGA,142258.000,3306.6794,S,06417.9266,W,1,06,1.3,438.7,M,21.4,M,,0000*55
$GPGSA,A,3,18,29,28,26,31,23,,,,,,,2.6,1.3,2.3*3A
$GPRMC,142258.000,A,3306.6794,S,06417.9266,W,2.48,334.98,121124,,,A*62
$GPGGA,142259.000,3306.6788,S,06417.9270,W,1,06,1.3,438.7,M,21.4,M,,0000*5E
$GPGSA,A,3,18,29,28,26,31,23,,,,,,,2.6,1.3,2.3*3A
$GPRMC,142259.000,A,3306.6788,S,06417.9270,W,2.66,334.70,121124,,,A*63
$GPGGA,142300.000,3306.6781,S,06417.9273,W,1,06,1.3,438.7,M,21.4,M,,0000*59
$GPGSA,A,3,18,29,28,26,31,23,,,,,,,2.6,1.3,2.3*3A
$GPRMC,142300.000,A,3306.6781,S,06417.9273,W,2.35,335.54,121124,,,A*65
$GPGGA,142301.000,3306.6775,S,06417.9275,W,1,06,1.3,438.7,M,21.4,M,,0000*55
$GPGSA,A,3,18,29,28,26,31,23,,,,,,,2.6,1.3,2.3*3A
$GPRMC,142301.000,A,3306.6775,S,06417.9275,W,2.14,335.06,121124,,,A*6D
$GPGGA,142302.000,3306.6771,S,06417.9279,W,1,06,1.3,438.9,M,21.4,M,,0000*50
$GPGSA,A,3,18,29,28,26,31,23,,,,,,,2.6,1.3,2.3*3A
$GPGSV,3,1,12,18,76,304,38,29,52,140,31,28,35,298,33,26,34,225,37*7A
$GPGSV,3,2,12,31,32,256,37,23,18,011,33,12,04,331,19,20,00,000,16*7E
$GPGSV,3,3,12,25,64,109,28,24,68,211,,16,66,013,,32,58,206,*7A
$GPRMC,142302.000,A,3306.6771,S,06417.9279,W,1.64,334.34,121124,,,A*62
$GPGGA,142303.000,3306.6767,S,06417.9281,W,1,06,1.3,439.0,M,21.4,M,,0000*59
$GPGSA,A,3,18,29,28,26,31,23,,,,,,,2.6,1.3,2.3*3A
$GPRMC,142303.000,A,3306.6767,S,06417.9281,W,1.11,334.34,121124,,,A*61
$GPGGA,142304.000,3306.6766,S,06417.9284,W,1,06,1.3,438.9,M,21.4,M,,0000*52
$GPGSA,A,3,18,29,28,26,31,23,,,,,,,2.6,1.3,2.3*3A
$GPRMC,142304.000,A,3306.6766,S,06417.9284,W,1.04,334.34,121124,,,A*66
$GPGGA,142305.000,3306.6766,S,06417.9286,W,1,06,1.3,438.8,M,21.4,M,,0000*50
$GPGSA,A,3,18,29,28,26,31,23,,,,,,,2.6,1.3,2.3*3A
$GPRMC,142305.000,A,3306.6766,S,06417.9286,W,0.68,334.34,121124,,,A*6E
$GPGGA,142306.000,3306.6765,S,06417.9287,W,1,06,1.3,438.8,M,21.4,M,,0000*51
$GPGSA,A,3,18,29,28,26,31,23,,,,,,,2.6,1.3,2.3*3A
$GPRMC,142306.000,A,3306.6765,S,06417.9287,W,0.59,334.34,121124,,,A*6D
$GPGGA,142307.000,3306.6765,S,06417.9286,W,1,06,1.3,438.7,M,21.4,M,,0000*5E
$GPGSA,A,3,18,29,28,26,31,23,,,,,,,2.6,1.3,2.3*3A
$GPGSV,3,1,12,18,76,304,37,29,52,140,31,28,35,298,29,26,34,225,33*7A
$GPGSV,3,2,12,31,32,256,35,23,18,011,27,12,04,331,26,20,00,000,24*74
$GPGSV,3,3,12,25,64,109,30,24,68,211,,16,66,013,,32,58,206,*73
$GPRMC,142307.000,A,3306.6765,S,06417.9286,W,0.32,334.34,121124,,,A*60
$GPGGA,142308.000,3306.6765,S,06417.9285,W,1,06,1.3,438.6,M,21.4,M,,0000*53
$GPGSA,A,3,18,29,28,26,31,23,,,,,,,2.6,1.3,2.3*3A
$GPRMC,142308.000,A,3306.6765,S,06417.9285,W,0.08,334.34,121124,,,A*65
$GPGGA,142309.000,3306.6765,S,06417.9285,W,1,06,1.3,438.6,M,21.4,M,,0000*52
$GPGSA,A,3,18,29,28,26,31,23,,,,,,,2.6,1.3,2.3*3A
$GPRMC,142309.000,A,3306.6765,S,06417.9285,W,0.00,334.34,121124,,,A*6C
$GPGGA,142310.000,3306.6765,S,06417.9285,W,1,06,1.3,438.6,M,21.4,M,,0000*5A
$GPGSA,A,3,18,29,28,26,31,23,,,,,,,2.6,1.3,2.3*3A
$GPRMC,142310.000,A,3306.6765,S,06417.9285,W,0.00,334.34,121124,,,A*64
$GPGGA,142311.000,3306.6765,S,06417.9285,W,1,06,1.3,438.6,M,21.4,M,,0000*5B
$GPGSA,A,3,18,29,28,26,31,23,,,,,,,2.6,1.3,2.3*3A
$GPRMC,142311.000,A,3306.6765,S,06417.9285,W,0.00,334.34,121124,,,A*65
$GPGGA,142312.000,3306.6765,S,06417.9285,W,1,06,1.3,438.6,M,21.4,M,,0000*58
$GPGSA,A,3,18,29,28,26,31,23,,,,,,,2.6,1.3,2.3*3A
$GPGSV,3,1,12,18,76,304,37,29,52,140,32,28,35,298,35,26,34,225,28*7E
$GPGSV,3,2,12,31,32,256,35,23,18,011,34,12,04,331,23,20,00,000,12*76
$GPGSV,3,3,12,25,64,109,35,24,68,211,,16,66,013,,32,58,206,*76
$GPRMC,142312.000,A,3306.6765,S,06417.9285,W,0.00,334.34,121124,,,A*66
$GPGGA,142313.000,3306.6765,S,06417.9285,W,1,06,1.3,438.6,M,21.4,M,,0000*59
$GPGSA,A,3,18,29,28,26,31,23,,,,,,,2.6,1.3,2.3*3A
$GPRMC,142313.000,A,3306.6765,S,06417.9285,W,0.00,334.34,121124,,,A*67
$GPGGA,142314.000,3306.6765,S,06417.9285,W,1,06,1.3,438.6,M,21.4,M,,0000*5E
$GPGSA,A,3,18,29,28,26,31,23,,,,,,,2.6,1.3,2.3*3A
$GPRMC,142314.000,A,3306.6765,S,06417.9285,W,0.00,334.34,121124,,,A*60
$GPGGA,142315.000,3306.6765,S,06417.9285,W,1,06,1.3,438.6,M,21.4,M,,0000*5F
$GPGSA,A,3,18,29,28,26,31,23,,,,,,,2.6,1.3,2.3*3A
$GPRMC,142315.000,A,3306.6765,S,06417.9285,W,0.00,334.34,121124,,,A*61
$GPGGA,142316.000,3306.6765,S,06417.9285,W,1,06,1.3,438.6,M,21.4,M,,0000*5C
$GPGSA,A,3,18,29,28,26,31,23,,,,,,,2.6,1.3,2.3*3A
$GPRMC,142316.000,A,3306.6765,S,06417.9285,W,0.00,334.34,121124,,,A*62
$GPGGA,142317.000,3306.6765,S,06417.9285,W,1,06,1.3,438.6,M,21.4,M,,0000*5D
$GPGSA,A,3,18,29,28,26,31,23,,,,,,,2.6,1.3,2.3*3A
$GPGSV,3,1,12,18,76,304,37,29,52,140,26,28,35,298,35,26,34,225,28*7B
$GPGSV,3,2,12,31,32,256,34,23,18,011,33,12,04,331,22,20,00,000,14*77
$GPGSV,3,3,12,25,64,109,35,24,68,211,,16,66,013,,32,58,206,*76
$GPRMC,142317.000,A,3306.6765,S,06417.9285,W,0.00,334.34,121124,,,A*63
$GPGGA,142318.000,3306.6765,S,06417.9285,W,1,06,1.3,438.6,M,21.4,M,,0000*52
$GPGSA,A,3,18,29,28,26,31,23,,,,,,,2.6,1.3,2.3*3A
$GPRMC,142318.000,A,3306.6765,S,06417.9285,W,0.00,334.34,121124,,,A*6C
$GPGGA,142319.000,3306.6765,S,06417.9285,W,1,06,1.3,438.5,M,21.4,M,,0000*50
$GPGSA,A,3,18,29,28,26,31,23,,,,,,,2.6,1.3,2.3*3A
$GPRMC,142319.000,A,3306.6765,S,06417.9285,W,0.00,334.34,121124,,,A*6D
$GPGGA,142320.000,3306.6765,S,06417.9285,W,1,06,1.3,438.5,M,21.4,M,,0000*5A
$GPGSA,A,3,18,29,28,26,31,23,,,,,,,2.6,1.3,2.3*3A
$GPRMC,142320.000,A,3306.6765,S,06417.9285,W,0.00,334.34,121124,,,A*67
$GPGGA,142321.000,3306.6765,S,06417.9285,W,1,06,1.3,438.5,M,21.4,M,,0000*5B
$GPGSA,A,3,18,29,28,26,31,23,,,,,,,2.6,1.3,2.3*3A
$GPRMC,142321.000,A,3306.6765,S,06417.9285,W,0.00,334.34,121124,,,A*66
$GPGGA,142322.000,3306.6765,S,06417.9284,W,1,06,1.3,438.5,M,21.4,M,,0000*59
$GPGSA,A,3,18,29,28,26,31,23,,,,,,,2.6,1.3,2.3*3A
$GPGSV,3,1,12,18,76,304,37,29,52,140,27,28,35,298,35,26,34,225,27*75
$GPGSV,3,2,12,31,32,256,34,23,18,011,33,12,04,331,23,20,00,000,15*77
$GPGSV,3,3,12,25,64,109,35,24,68,211,,16,66,013,,32,58,206,*76
$GPRMC,142322.000,A,3306.6765,S,06417.9284,W,0.00,334.34,121124,,,A*64
$GPGGA,142323.000,3306.6765,S,06417.9284,W,1,06,1.3,438.5,M,21.4,M,,0000*58
$GPGSA,A,3,18,29,28,26,31,23,,,,,,,2.6,1.3,2.3*3A
$GPRMC,142323.000,A,3306.6765,S,06417.9284,W,0.00,334.34,121124,,,A*65
$GPGGA,142324.000,3306.6765,S,06417.9284,W,1,06,1.3,438.5,M,21.4,M,,0000*5F
$GPGSA,A,3,18,29,28,26,31,23,,,,,,,2.6,1.3,2.3*3A
$GPRMC,142324.000,A,3306.6765,S,06417.9284,W,0.00,334.34,121124,,,A*62
$GPGGA,142325.000,3306.6765,S,06417.9284,W,1,06,1.3,438.5,M,21.4,M,,0000*5E
$GPGSA,A,3,18,29,28,26,31,23,,,,,,,2.6,1.3,2.3*3A
$GPRMC,142325.000,A,3306.6765,S,06417.9284,W,0.00,334.34,121124,,,A*63
$GPGGA,142326.000,3306.6765,S,06417.9284,W,1,06,1.3,438.5,M,21.4,M,,0000*5D
$GPGSA,A,3,18,29,28,26,31,23,,,,,,,2.6,1.3,2.3*3A
$GPRMC,142326.000,A,3306.6765,S,06417.9284,W,0.00,334.34,121124,,,A*60
$GPGGA,142327.000,3306.6765,S,06417.9284,W,1,06,1.3,438.5,M,21.4,M,,0000*5C
$GPGSA,A,3,18,29,28,26,31,23,,,,,,,2.6,1.3,2.3*3A
$GPGSV,3,1,12,18,76,304,37,29,52,140,28,28,35,298,34,26,34,225,28*74
$GPGSV,3,2,12,31,32,256,31,23,18,011,33,12,04,331,23,20,00,000,18*7F
$GPGSV,3,3,12,25,64,109,34,24,68,211,,16,66,013,,32,58,206,*77
$GPRMC,142327.000,A,3306.6765,S,06417.9284,W,0.00,334.34,121124,,,A*61
$GPGGA,142328.000,3306.6765,S,06417.9284,W,1,06,1.3,438.5,M,21.4,M,,0000*53
$GPGSA,A,3,18,29,28,26,31,23,,,,,,,2.6,1.3,2.3*3A
$GPRMC,142328.000,A,3306.6765,S,06417.9284,W,0.00,334.34,121124,,,A*6E
$GPGGA,142329.000,3306.6765,S,06417.9284,W,1,06,1.3,438.5,M,21.4,M,,0000*52
$GPGSA,A,3,18,29,28,26,31,23,,,,,,,2.6,1.3,2.3*3A
$GPRMC,142329.000,A,3306.6765,S,06417.9284,W,0.00,334.34,121124,,,A*6F
$GPGGA,142330.000,3306.6765,S,06417.9284,W,1,06,1.3,438.5,M,21.4,M,,0000*5A
$GPGSA,A,3,18,29,28,26,31,23,,,,,,,2.6,1.3,2.3*3A
$GPRMC,142330.000,A,3306.6765,S,06417.9284,W,0.00,334.34,121124,,,A*67
$GPGGA,142331.000,3306.6765,S,06417.9284,W,1,06,1.3,438.5,M,21.4,M,,0000*5B
$GPGSA,A,3,18,29,28,26,31,23,,,,,,,2.6,1.3,2.3*3A
$GPRMC,142331.000,A,3306.6765,S,06417.9284,W,0.00,334.34,121124,,,A*66
$GPGGA,142332.000,3306.6765,S,06417.9284,W,1,06,1.3,438.5,M,21.4,M,,0000*58
$GPGSA,A,3,18,29,28,26,31,23,,,,,,,2.6,1.3,2.3*3A
$GPGSV,3,1,12,18,76,304,37,29,52,140,29,28,35,298,34,26,34,225,29*74
$GPGSV,3,2,12,31,32,256,32,23,18,011,33,12,04,331,24,20,00,000,22*72
$GPGSV,3,3,12,25,64,109,34,24,68,211,,16,66,013,,32,58,206,*77
$GPRMC,142332.000,A,3306.6765,S,06417.9284,W,0.00,334.34,121124,,,A*65
$GPGGA,142333.000,3306.6765,S,06417.9284,W,1,07,1.2,438.5,M,21.4,M,,0000*59
$GPGSA,A,3,18,29,28,26,31,23,25,,,,,,2.5,1.2,2.2*3E
$GPRMC,142333.000,A,3306.6765,S,06417.9284,W,0.00,334.34,121124,,,A*64
$GPGGA,142334.000,3306.6765,S,06417.9284,W,1,07,1.2,438.5,M,21.4,M,,0000*5E
$GPGSA,A,3,18,29,25,28,26,31,23,,,,,,2.5,1.2,2.2*3E
$GPRMC,142334.000,A,3306.6765,S,06417.9284,W,0.02,334.34,121124,,,A*61
$GPGGA,142335.000,3306.6765,S,06417.9284,W,1,07,1.2,438.4,M,21.4,M,,0000*5E
$GPGSA,A,3,18,29,25,28,26,31,23,,,,,,2.6,1.2,2.2*3D
$GPRMC,142335.000,A,3306.6765,S,06417.9284,W,0.38,334.34,121124,,,A*69
$GPGGA,142336.000,3306.6764,S,06417.9285,W,1,07,1.2,438.4,M,21.4,M,,0000*5D
$GPGSA,A,3,18,29,25,28,26,31,23,,,,,,2.6,1.2,2.2*3D
$GPRMC,142336.000,A,3306.6764,S,06417.9285,W,0.49,334.34,121124,,,A*6C
$GPGGA,142337.000,3306.6763,S,06417.9285,W,1,07,1.2,438.3,M,21.4,M,,0000*5C
$GPGSA,A,3,18,29,25,28,26,31,23,,,,,,2.6,1.2,2.2*3D
$GPGSV,3,1,12,18,77,303,29,29,52,139,23,25,49,044,23,28,35,298,26*7C
$GPGSV,3,2,12,26,35,225,23,31,32,257,30,23,19,011,26,12,04,331,21*75
$GPGSV,3,3,12,20,00,000,14,24,68,210,,16,66,014,,32,58,205,*7F
$GPRMC,142337.000,A,3306.6763,S,06417.9285,W,0.39,334.34,121124,,,A*6D
