5.1,172.7,M,21.4,M,,0000*59
$GPGSA,A,3,23,29,10,28,,,,,,,,,6.1,5.1,3.4*37
$GPRMC,160017.464,A,3306.7326,S,06418.4330,W,1.86,345.57,081124,,,A*6E
$GPGGA,160018.464,3306.7307,S,06418.4305,W,1,04,5.1,174.4,M,21.4,M,,0000*56
$GPGSA,A,3,23,29,10,28,,,,,,,,,6.1,5.1,3.4*37
$GPGSV,3,1,12,23,55,031,31,29,32,096,21,10,23,353,25,28,09,327,16*7F
$GPGSV,3,2,12,25,14,027,04,32,78,082,,16,67,139,,12,38,316,*7D
$GPGSV,3,3,12,27,28,099,,31,21,258,,17,20,119,,13,09,227,*7A
$GPRMC,160018.464,A,3306.7307,S,06418.4305,W,2.34,352.65,081124,,,A*69
$GPGGA,160019.464,3306.7300,S,06418.4294,W,1,04,5.1,176.1,M,21.4,M,,0000*5E
$GPGSA,A,3,23,29,10,28,,,,,,,,,6.1,5.1,3.4*37
$GPRMC,160019.464,A,3306.7300,S,06418.4294,W,1.93,353.68,081124,,,A*64
$GPGGA,160020.464,3306.7290,S,06418.4282,W,1,04,5.1,178.0,M,21.4,M,,0000*54
$GPGSA,A,3,23,29,10,28,,,,,,,,,6.1,5.1,3.4*37
$GPRMC,160020.464,A,3306.7290,S,06418.4282,W,1.71,353.47,081124,,,A*60
$GPGGA,160021.464,3306.7268,S,06418.4260,W,1,04,5.1,180.1,M,21.4,M,,0000*58
$GPGSA,A,3,23,29,10,28,,,,,,,,,6.1,5.1,3.4*37
$GPRMC,160021.464,A,3306.7268,S,06418.4260,W,2.03,354.59,081124,,,A*64
$GPGGA,160022.464,3306.7245,S,06418.4239,W,1,04,5.1,182.4,M,21.4,M,,0000*5F
$GPGSA,A,3,23,29,10,28,,,,,,,,,6.1,5.1,3.4*37
$GPRMC,160022.464,A,3306.7245,S,06418.4239,W,2.41,356.89,081124,,,A*6D
$GPGGA,160023.464,3306.7224,S,06418.4218,W,1,04,5.1,184.6,M,21.4,M,,0000*5E
$GPGSA,A,3,23,29,10,28,,,,,,,,,6.1,5.1,3.4*37
$GPGSV,3,1,12,23,55,031,29,29,32,096,31,10,23,353,25,28,09,327,17*76
$GPGSV,3,2,12,25,14,027,14,32,78,082,,16,67,139,,12,38,316,*7C
$GPGSV,3,3,12,27,28,099,,31,21,258,,17,20,119,,13,09,227,*7A
$GPRMC,160023.464,A,3306.7224,S,06418.4218,W,2.53,358.97,081124,,,A*6A
$GPGGA,160024.464,3306.7208,S,06418.4201,W,1,04,5.1,186.7,M,21.4,M,,0000*5C
$GPGSA,A,3,23,29,10,28,,,,,,,,,6.1,5.1,3.4*37
$GPRMC,160024.464,A,3306.7208,S,06418.4201,W,2.54,359.97,081124,,,A*6D
$GPGGA,160025.464,3306.7193,S,06418.4183,W,1,05,2.3,188.9,M,21.4,M,,0000*51
$GPGSA,A,3,23,29,10,25,28,,,,,,,,3.3,2.3,2.3*34
$GPRMC,160025.464,A,3306.7193,S,06418.4183,W,1.84,1.19,081124,,,A*62
$GPGGA,160026.464,3306.7170,S,06418.4157,W,1,05,2.3,191.0,M,21.4,M,,0000*57
$GPGSA,A,3,23,29,10,25,28,,,,,,,,3.3,2.3,2.3*34
$GPRMC,160026.464,A,3306.7170,S,06418.4157,W,2.28,2.83,081124,,,A*60
$GPGGA,160027.464,3306.7147,S,06418.4135,W,1,05,2.3,192.7,M,21.4,M,,0000*52
$GPGSA,A,3,23,29,10,25,28,,,,,,,,3.3,2.3,2.3*34
$GPRMC,160027.464,A,3306.7147,S,06418.4135,W,2.98,4.94,081124,,,A*6A
$GPGGA,160028.464,3306.7124,S,06418.4110,W,1,05,2.3,194.6,M,21.4,M,,0000*58
$GPGSA,A,3,23,29,10,25,28,,,,,,,,3.3,2.3,2.3*34
$GPGSV,3,1,12,23,55,031,29,29,32,096,32,10,23,353,27,25,14,027,15*77
$GPGSV,3,2,12,28,09,327,15,32,78,082,,16,67,139,,12,38,316,*7F
$GPGSV,3,3,12,27,28,099,,31,21,258,,17,20,119,,13,09,227,*7A
$GPRMC,160028.464,A,3306.7124,S,06418.4110,W,3.40,9.21,081124,,,A*60
$GPGGA,160029.464,3306.7097,S,06418.4081,W,1,05,2.3,196.4,M,21.4,M,,0000*59
$GPGSA,A,3,23,29,10,25,28,,,,,,,,3.3,2.3,2.3*34
$GPRMC,160029.464,A,3306.7097,S,06418.4081,W,4.03,13.48,081124,,,A*55
$GPGGA,160030.464,3306.7085,S,06418.4074,W,1,05,2.3,198.1,M,21.4,M,,0000*53
$GPGSA,A,3,23,29,10,25,28,,,,,,,,3.3,2.3,2.3*34
$GPRMC,160030.464,A,3306.7085,S,06418.4074,W,3.30,13.13,081124,,,A*5D
$GPGGA,160031.464,3306.7067,S,06418.4053,W,1,05,2.3,200.0,M,21.4,M,,0000*58
$GPGSA,A,3,23,29,10,25,28,,,,,,,,3.3,2.3,2.3*34
$GPRMC,160031.464,A,3306.7067,S,06418.4053,W,3.07,14.49,081124,,,A*59
$GPGGA,160032.464,3306.7048,S,06418.4032,W,1,05,2.3,202.0,M,21.4,M,,0000*53
$GPGSA,A,3,23,29,10,25,28,,,,,,,,3.3,2.3,2.3*34
$GPRMC,160032.464,A,3306.7048,S,06418.4032,W,3.05,16.28,081124,,,A*57
$GPGGA,160033.464,3306.7039,S,06418.4020,W,1,05,2.3,204.0,M,21.4,M,,0000*51
$GPGSA,A,3,23,29,10,25,28,,,,,,,,3.3,2.3,2.3*34
$GPGSV,3,1,12,23,55,031,29,29,32,096,32,10,23,353,27,25,14,027,17*75
$GPGSV,3,2,12,28,09,327,14,32,78,082,,16,67,139,,12,38,316,*7E
$GPGSV,3,3,12,27,28,099,,31,21,258,,17,20,119,,13,09,227,*7A
$GPRMC,160033.464,A,3306.7039,S,06418.4020,W,2.22,18.54,081124,,,A*52
$GPGGA,160034.464,3306.7029,S,06418.4008,W,1,04,4.5,205.7,M,21.4,M,,0000*5A
$GPGSA,A,3,23,29,10,25,,,,,,,,,5.6,4.5,3.3*3C
$GPRMC,160034.464,A,3306.7029,S,06418.4008,W,2.33,19.18,081124,,,A*57
$GPGGA,160035.464,3306.7017,S,06418.3992,W,1,04,4.5,207.3,M,21.4,M,,0000*5D
$GPGSA,A,3,23,29,10,25,,,,,,,,,5.6,4.5,3.3*3C
$GPRMC,160035.464,A,3306.7017,S,06418.3992,W,1.98,20.90,081124,,,A*5E
$GPGGA,160036.464,3306.7007,S,06418.3977,W,1,04,4.5,208.8,M,21.4,M,,0000*50
$GPGSA,A,3,23,29,10,25,,,,,,,,,5.6,4.5,3.3*3C
$GPRMC,160036.464,A,3306.7007,S,06418.3977,W,1.50,22.23,081124,,,A*59
$GPGGA,160037.464,3306.6996,S,06418.3955,W,1,05,2.3,210.7,M,21.4,M,,0000*56
$GPGSA,A,3,23,29,10,25,28,,,,,,,,3.3,2.3,2.3*34
$GPRMC,160037.464,A,3306.6996,S,06418.3955,W,0.90,22.23,081124,,,A*55
$GPGGA,160038.464,3306.6978,S,06418.3926,W,1,05,2.3,212.6,M,21.4,M,,0000*5E
$GPGSA,A,3,23,29,10,25,28,,,,,,,,3.3,2.3,2.3*34
$GPGSV,3,1,12,23,55,031,29,29,32,096,25,10,23,353,27,25,14,027,23*74
$GPGSV,3,2,12,28,09,327,14,32,78,082,,16,67,139,,12,38,316,*7E
$GPGSV,3,3,12,27,28,099,,31,21,258,,17,20,119,,13,09,227,*7A
$GPRMC,160038.464,A,3306.6978,S,06418.3926,W,1.08,22.23,081124,,,A*5E
$GPGGA,160039.464,3306.6962,S,06418.3904,W,1,05,2.3,214.1,M,21.4,M,,0000*55
$GPGSA,A,3,23,29,10,25,28,,,,,,,,3.3,2.3,2.3*34
$GPRMC,160039.464,A,3306.6962,S,06418.3904,W,1.52,20.88,081124,,,A*58
$GPGGA,160040.464,3306.6948,S,06418.3886,W,1,05,2.3,215.8,M,21.4,M,,0000*50
$GPGSA,A,3,23,29,10,25,28,,,,,,,,3.3,2.3,2.3*34
$GPRMC,160040.464,A,3306.6948,S,06418.3886,W,1.81,21.47,081124,,,A*59
$GPGGA,160041.464,3306.6931,S,06418.3863,W,1,05,2.3,217.8,M,21.4,M,,0000*56
$GPGSA,A,3,23,29,10,25,28,,,,,,,,3.3,2.3,2.3*34
$GPRMC,160041.464,A,3306.6931,S,06418.3863,W,2.04,20.73,081124,,,A*55
$GPGGA,160042.464,3306.6911,S,06418.3842,W,1,05,2.3,219.2,M,21.4,M,,0000*50
$GPGSA,A,3,23,29,10,25,28,,,,,,,,3.3,2.3,2.3*34
$GPRMC,160042.464,A,3306.6911,S,06418.3842,W,2.26,21.69,081124,,,A*5D
$GPGGA,160043.464,3306.6897,S,06418.3823,W,1,05,2.3,220.6,M,21.4,M,,0000*57
$GPGSA,A,3,23,29,10,25,28,,,,,,,,3.3,2.3,2.3*34
$GPGSV,3,1,12,23,55,031,29,29,32,096,30,10,23,353,20,25,14,027,22*76
$GPGSV,3,2,12,28,09,327,12,32,78,082,,16,67,139,,12,38,316,*78
$GPGSV,3,3,12,27,28,099,,31,21,258,,17,20,119,,13,09,227,*7A
$GPRMC,160043.464,A,3306.6897,S,06418.3823,W,2.00,24.63,081124,,,A*5F
$GPGGA,160044.464,3306.6879,S,06418.3802,W,1,05,2.3,222.0,M,21.4,M,,0000*57
$GPGSA,A,3,23,29,10,25,28,,,,,,,,3.3,2.3,2.3*34
$GPRMC,160044.464,A,3306.6879,S,06418.3802,W,2.51,27.03,081124,,,A*5A
$GPGGA,160045.464,3306.6858,S,06418.3778,W,1,05,2.3,223.4,M,21.4,M,,0000*52
$GPGSA,A,3,23,29,10,25,28,,,,,,,,3.3,2.3,2.3*34
$GPRMC,160045.464,A,3306.6858,S,06418.3778,W,3.06,29.02,081124,,,A*56
$GPGGA,160046.464,3306.6836,S,06418.3756,W,1,05,2.3,224.8,M,21.4,M,,0000*5E
$GPGSA,A,3,23,29,10,25,28,,,,,,,,3.3,2.3,2.3*34
$GPRMC,160046.464,A,3306.6836,S,06418.3756,W,3.57,28.32,081124,,,A*57
$GPGGA,160047.464,3306.6820,S,06418.3740,W,1,05,2.3,226.3,M,21.4,M,,0000*56
$GPGSA,A,3,23,29,10,25,28,,,,,,,,3.3,2.3,2.3*34
$GPRMC,160047.464,A,3306.6820,S,06418.3740,W,3.28,27.95,081124,,,A*5C
$GPGGA,160048.464,3306.6800,S,06418.3721,W,1,05,2.3,228.3,M,21.4,M,,0000*52
$GPGSA,A,3,23,29,10,25,28,,,,,,,,3.3,2.3,2.3*34
$GPGSV,3,1,12,23,55,031,35,29,32,096,30,10,23,353,23,25,14,027,16*7F
$GPGSV,3,2,12,28,09,327,12,32,78,082,,16,67,139,,12,38,316,*78
$GPGSV,3,3,12,27,28,099,,31,21,258,,17,20,119,,13,09,227,*7A
$GPRMC,160048.464,A,3306.6800,S,06418.3721,W,3.35,26.58,081124,,,A*5A
$GPGGA,160049.464,3306.6783,S,06418.3704,W,1,05,2.3,230.1,M,21.4,M,,0000*5B
$GPGSA,A,3,23,29,10,25,28,,,,,,,,3.3,2.3,2.3*34
$GPRMC,160049.464,A,3306.6783,S,06418.3704,W,3.24,24.48,081124,,,A*5B
$GPGGA,160050.464,3306.6769,S,06418.3696,W,1,04,4.5,231.5,M,21.4,M,,0000*59
$GPGSA,A,3,23,29,10,25,,,,,,,,,5.6,4.5,3.3*3C
$GPRMC,160050.464,A,3306.6769,S,06418.3696,W,3.06,22.79,081124,,,A*59
$GPGGA,160051.464,3306.6755,S,06418.3685,W,1,04,4.5,233.3,M,21.4,M,,0000*51
$GPGSA,A,3,23,29,10,25,,,,,,,,,5.6,4.5,3.3*3C
$GPRMC,160051.464,A,3306.6755,S,06418.3685,W,3.13,20.72,081124,,,A*58
$GPGGA,160052.464,3306.6743,S,06418.3673,W,1,04,4.5,235.2,M,21.4,M,,0000*5B
$GPGSA,A,3,23,29,10,25,,,,,,,,,5.6,4.5,3.3*3C
$GPRMC,160052.464,A,3306.6743,S,06418.3673,W,2.54,19.44,081124,,,A*58
$GPGGA,160053.464,3306.6732,S,06418.3664,W,1,04,4.5,236.8,M,21.4,M,,0000*53
$GPGSA,A,3,23,29,10,25,,,,,,,,,5.6,4.5,3.3*3C
$GPGSV,3,1,12,23,55,031,34,29,32,096,31,10,23,353,26,25,14,027,23*7C
$GPGSV,3,2,12,32,78,082,,16,67,139,,12,38,316,,27,28,099,*71
$GPGSV,3,3,12,31,21,258,,17,20,119,,13,09,227,,28,09,327,*70
$GPRMC,160053.464,A,3306.6732,S,06418.3664,W,2.14,18.16,081124,,,A*5B
$GPGGA,160054.464,3306.6718,S,06418.3645,W,1,04,4.5,238.4,M,21.4,M,,0000*5D
$GPGSA,A,3,23,29,10,25,,,,,,,,,5.6,4.5,3.3*3C
$GPRMC,160054.464,A,3306.6718,S,06418.3645,W,2.01,19.24,081124,,,A*53
$GPGGA,160055.464,3306.6711,S,06418.3632,W,1,04,4.5,239.8,M,21.4,M,,0000*58
$GPGSA,A,3,23,29,10,25,,,,,,,,,5.6,4.5,3.3*3C
$GPRMC,160055.464,A,3306.6711,S,06418.3632,W,1.48,20.65,081124,,,A*5A
$GPGGA,160056.464,3306.6707,S,06418.3619,W,1,04,4.5,241.4,M,21.4,M,,0000*56
$GPGSA,A,3,23,29,10,25,,,,,,,,,5.6,4.5,3.4*3B
$GPRMC,160056.464,A,3306.6707,S,06418.3619,W,1.23,24.42,081124,,,A*5B
$GPGGA,160057.464,3306.6704,S,06418.3613,W,1,04,4.5,242.5,M,21.4,M,,0000*5C
$GPGSA,A,3,23,29,10,25,,,,,,,,,5.6,4.5,3.4*3B
$GPRMC,160057.464,A,3306.6704,S,06418.3613,W,0.65,24.42,081124,,,A*50
$GPGGA,160058.464,3306.6697,S,06418.3604,W,1,04,4.5,243.6,M,21.4,M,,0000*5C
$GPGSA,A,3,23,29,10,25,,,,,,,,,5.6,4.5,3.4*3B
$GPGSV,3,1,12,23,55,031,29,29,32,096,30,10,23,353,23,25,14,027,22*75
$GPGSV,3,2,12,32,78,082,,16,67,139,,12,38,316,,27,28,099,*71
$GPGSV,3,3,12,31,21,258,,17,20,119,,13,09,227,,28,09,327,*70
$GPRMC,160058.464,A,3306.6697,S,06418.3604,W,0.60,24.42,081124,,,A*57
$GPGGA,160059.464,3306.6692,S,06418.3597,W,1,04,4.5,244.5,M,21.4,M,,0000*55
$GPGSA,A,3,23,29,10,25,,,,,,,,,5.6,4.5,3.4*3B
$GPRMC,160059.464,A,3306.6692,S,06418.3597,W,0.71,24.42,081124,,,A*5A
$GPGGA,160100.464,3306.6683,S,06418.3588,W,1,04,4.5,245.2,M,21.4,M,,0000*50
$GPGSA,A,3,23,29,10,25,,,,,,,,,5.6,4.5,3.4*3B
$GPRMC,160100.464,A,3306.6683,S,06418.3588,W,1.06,24.42,081124,,,A*58
$GPGGA,160101.464,3306.6674,S,06418.3576,W,1,04,4.5,245.8,M,21.4,M,,0000*52
$GPGSA,A,3,23,29,10,25,,,,,,,,,5.6,4.5,3.4*3B
$GPRMC,160101.464,A,3306.6674,S,06418.3576,W,1.48,24.33,081124,,,A*5C
$GPGGA,160102.464,3306.6666,S,06418.3563,W,1,04,4.5,246.5,M,21.4,M,,0000*58
$GPGSA,A,3,23,29,10,25,,,,,,,,,5.6,4.5,3.4*3B
$GPRMC,160102.464,A,3306.6666,S,06418.3563,W,1.97,26.32,081124,,,A*59
$GPGGA,160103.464,3306.6655,S,06418.3549,W,1,04,4.5,247.2,M,21.4,M,,0000*57
$GPGSA,A,3,23,29,10,25,,,,,,,,,5.6,4.5,3.4*3B
$GPGSV,3,1,12,23,55,031,26,29,32,096,22,10,23,353,20,25,14,027,18*73
$GPGSV,3,2,12,32,78,082,,16,67,139,,12,38,316,,27,28,099,*71
$GPGSV,3,3,12,31,21,258,,17,20,119,,13,09,227,,28,09,327,*70
$GPRMC,160103.464,A,3306.6655,S,06418.3549,W,2.50,29.32,081124,,,A*57
$GPGGA,160104.464,3306.6643,S,06418.3530,W,1,04,4.5,248.1,M,21.4,M,,0000*55
$GPGSA,A,3,23,29,10,25,,,,,,,,,5.6,4.5,3.4*3B
$GPRMC,160104.464,A,3306.6643,S,06418.3530,W,2.47,31.46,081124,,,A*55
$GPGGA,160105.464,3306.6632,S,06418.3521,W,1,04,4.5,248.8,M,21.4,M,,0000*5B
$GPGSA,A,3,23,29,10,25,,,,,,,,,5.7,4.5,3.4*3A
$GPRMC,160105.464,A,3306.6632,S,06418.3521,W,2.60,31.03,081124,,,A*56
$GPGGA,160106.464,3306.6621,S,06418.3510,W,1,04,4.5,249.5,M,21.4,M,,0000*54
$GPGSA,A,3,23,29,10,25,,,,,,,,,5.7,4.5,3.4*3A
$GPRMC,160106.464,A,3306.6621,S,06418.3510,W,2.65,30.72,081124,,,A*57
$GPGGA,160107.464,3306.6614,S,06418.3505,W,1,04,4.6,250.3,M,21.4,M,,0000*5A
$GPGSA,A,3,23,29,10,25,,,,,,,,,5.7,4.6,3.4*39
$GPRMC,160107.464,A,3306.6614,S,06418.3505,W,2.44,30.77,081124,,,A*52
$GPGGA,160108.464,3306.6607,S,06418.3496,W,1,04,4.6,250.9,M,21.4,M,,0000*56
$GPGSA,A,3,23,29,10,25,,,,,,,,,5.7,4.6,3.4*39
$GPGSV,3,1,12,23,55,031,30,29,32,096,27,10,23,353,21,25,14,027,16*7E
$GPGSV,3,2,12,32,78,082,,16,67,139,,12,38,316,,27,28,099,*71
$GPGSV,3,3,12,31,21,258,,17,20,119,,13,09,227,,28,09,327,*70
$GPRMC,160108.464,A,3306.6607,S,06418.3496,W,2.33,30.14,081124,,,A*51
$GPGGA,160109.464,3306.6600,S,06418.3488,W,1,04,4.6,251.6,M,21.4,M,,0000*51
$GPGSA,A,3,23,29,10,25,,,,,,,,,5.7,4.6,3.4*39
$GPRMC,160109.464,A,3306.6600,S,06418.3488,W,2.16,30.30,081124,,,A*59
$GPGGA,160110.464,3306.6587,S,06418.3455,W,1,04,4.6,254.3,M,21.4,M,,0000*55
$GPGSA,A,3,23,29,10,25,,,,,,,,,5.7,4.6,3.4*39
$GPRMC,160110.464,A,3306.6587,S,06418.3455,W,2.04,30.44,081124,,,A*5D
$GPGGA,160111.464,3306.6572,S,06418.3419,W,1,04,4.6,256.9,M,21.4,M,,0000*5E
$GPGSA,A,3,23,29,10,25,,,,,,,,,5.7,4.6,3.4*39
$GPRMC,160111.464,A,3306.6572,S,06418.3419,W,2.13,31.26,081124,,,A*5D
$GPGGA,160112.464,3306.6566,S,06418.3396,W,1,04,4.6,259.4,M,21.4,M,,0000*5A
$GPGSA,A,3,23,29,10,25,,,,,,,,,5.7,4.6,3.4*39
$GPRMC,160112.464,A,3306.6566,S,06418.3396,W,1.62,30.22,081124,,,A*5B
$GPGGA,160113.464,3306.6554,S,06418.3368,W,1,04,4.6,262.0,M,21.4,M,,0000*57
$GPGSA,A,3,23,29,10,25,,,,,,,,,5.7,4.6,3.4*39
$GPGSV,3,1,12,23,55,031,30,29,32,096,26,10,23,353,30,25,14,027,15*7C
$GPGSV,3,2,12,32,78,082,,16,67,139,,12,38,316,,27,28,099,*71
$GPGSV,3,3,12,31,21,258,,17,20,119,,13,09,227,,28,09,327,*70
$GPRMC,160113.464,A,3306.6554,S,06418.3368,W,1.59,29.54,081124,,,A*5B
$GPGGA,160114.464,3306.6539,S,06418.3339,W,1,04,4.6,264.6,M,21.4,M,,0000*5F
$GPGSA,A,3,23,29,10,25,,,,,,,,,5.7,4.6,3.4*39
$GPRMC,160114.464,A,3306.6539,S,06418.3339,W,1.89,27.10,081124,,,A*50
$GPGGA,160115.464,3306.6528,S,06418.3319,W,1,04,4.6,267.2,M,21.4,M,,0000*5B
$GPGSA,A,3,23,29,10,25,,,,,,,,,5.7,4.6,3.4*39
$GPRMC,160115.464,A,3306.6528,S,06418.3319,W,1.92,22.15,081124,,,A*59
$GPGGA,160116.464,3306.6517,S,06418.3307,W,1,04,4.6,268.3,M,21.4,M,,0000*55
$GPGSA,A,3,23,29,10,25,,,,,,,,,5.7,4.6,3.4*39
$GPRMC,160116.464,A,3306.6517,S,06418.3307,W,2.00,17.98,081124,,,A*52
$GPGGA,160117.464,3306.6507,S,06418.3302,W,1,04,4.6,269.1,M,21.4,M,,0000*53
$GPGSA,A,3,23,29,10,25,,,,,,,,,5.7,4.6,3.4*39
$GPRMC,160117.464,A,3306.6507,S,06418.3302,W,2.37,13.41,081124,,,A*53
$GPGGA,160118.464,3306.6507,S,06418.3310,W,1,04,4.6,270.0,M,21.4,M,,0000*56
$GPGSA,A,3,23,29,10,25,,,,,,,,,5.7,4.6,3.4*39
$GPGSV,3,1,12,23,55,031,38,29,32,096,22,10,23,353,18,25,14,027,24*78
$GPGSV,3,2,12,32,78,082,,16,67,139,,12,38,316,,27,28,099,*71
$GPGSV,3,3,12,31,21,258,,17,20,119,,13,09,227,,28,09,327,*70
$GPRMC,160118.464,A,3306.6507,S,06418.3310,W,2.09,8.69,081124,,,A*62
$GPGGA,160119.464,3306.6507,S,06418.3314,W,1,04,4.6,270.5,M,21.4,M,,0000*56
$GPGSA,A,3,23,29,10,25,,,,,,,,,5.7,4.6,3.4*39
$GPRMC,160119.464,A,3306.6507,S,06418.3314,W,1.35,6.69,081124,,,A*65
$GPGGA,160120.464,3306.6503,S,06418.3314,W,1,04,4.6,271.3,M,21.4,M,,0000*5F
$GPGSA,A,3,23,29,10,25,,,,,,,,,5.7,4.6,3.4*39
$GPRMC,160120.464,A,3306.6503,S,06418.3314,W,1.56,4.73,081124,,,A*67
$GPGGA,160121.464,3306.6504,S,06418.3318,W,1,04,4.6,271.8,M,21.4,M,,0000*5E
$GPGSA,A,3,23,29,10,25,,,,,,,,,5.7,4.6,3.4*39
$GPRMC,160121.464,A,3306.6504,S,06418.3318,W,0.98,4.73,081124,,,A*6E
$GPGGA,160122.464,3306.6507,S,06418.3320,W,1,04,4.6,272.6,M,21.4,M,,0000*58
$GPGSA,A,3,23,29,10,25,,,,,,,,,5.7,4.6,3.4*39
$GPRMC,160122.464,A,3306.6507,S,06418.3320,W,0.58,4.73,081124,,,A*69
$GPGGA,160123.464,3306.6512,S,06418.3331,W,1,04,4.6,273.2,M,21.4,M,,0000*58
$GPGSA,A,3,23,29,10,25,,,,,,,,,5.7,4.6,3.4*39
$GPGSV,3,1,12,23,55,031,37,29,32,096,20,10,23,353,15,25,14,027,27*7B
$GPGSV,3,2,12,28,09,327,09,32,78,082,,16,67,139,,12,38,316,*72
$GPGSV,3,3,12,27,28,099,,31,21,258,,17,20,119,,13,09,227,*7A
$GPRMC,160123.464,A,3306.6512,S,06418.3331,W,0.87,4.73,081124,,,A*6E
$GPGGA,160124.464,3306.6505,S,06418.3323,W,1,05,2.3,274.1,M,21.4,M,,0000*5C
$GPGSA,A,3,23,29,10,25,28,,,,,,,,3.3,2.3,2.3*34
$GPRMC,160124.464,A,3306.6505,S,06418.3323,W,0.79,4.73,081124,,,A*6D
$GPGGA,160125.464,3306.6497,S,06418.3320,W,1,05,2.3,274.8,M,21.4,M,,0000*5D
$GPGSA,A,3,23,29,10,25,28,,,,,,,,3.3,2.3,2.3*34
$GPRMC,160125.464,A,3306.6497,S,06418.3320,W,1.42,358.05,081124,,,A*67
$GPGGA,160126.464,3306.6490,S,06418.3320,W,1,05,2.3,275.7,M,21.4,M,,0000*57
$GPGSA,A,3,23,29,10,25,28,,,,,,,,3.3,2.3,2.3*34
$GPRMC,160126.464,A,3306.6490,S,06418.3320,W,1.71,350.69,081124,,,A*61
$GPGGA,160127.464,3306.6486,S,06418.3327,W,1,05,2.3,276.5,M,21.4,M,,0000*57
$GPGSA,A,3,23,29,10,25,28,,,,,,,,3.3,2.3,2.3*34
$GPRMC,160127.464,A,3306.6486,S,06418.3327,W,1.69,341.97,081124,,,A*68
$GPGGA,160128.464,3306.6480,S,06418.3325,W,1,05,2.3,277.5,M,21.4,M,,0000*5D
$GPGSA,A,3,23,29,10,25,28,,,,,,,,3.3,2.3,2.3*34
$GPGSV,3,1,12,23,55,031,28,29,32,096,29,10,23,353,16,25,14,027,18*73
$GPGSV,3,2,12,28,09,327,11,32,78,082,,16,67,139,,12,38,316,*7B
$GPGSV,3,3,12,27,28,099,,31,21,258,,17,20,119,,13,09,227,*7A
$GPRMC,160128.464,A,3306.6480,S,06418.3325,W,1.43,337.08,081124,,,A*6C
$GPGGA,160129.464,3306.6472,S,06418.3308,W,1,05,2.3,279.4,M,21.4,M,,0000*51
$GPGSA,A,3,23,29,10,25,28,,,,,,,,3.3,2.3,2.3*34
$GPRMC,160129.464,A,3306.6472,S,06418.3308,W,1.28,333.65,081124,,,A*6D
$GPGGA,160130.464,3306.6466,S,06418.3299,W,1,05,2.3,280.7,M,21.4,M,,0000*50
$GPGSA,A,3,23,29,10,25,28,,,,,,,,3.3,2.3,2.3*34
$GPRMC,160130.464,A,3306.6466,S,06418.3299,W,1.07,333.65,081124,,,A*64
$GPGGA,160131.464,3306.6458,S,06418.3295,W,1,05,2.3,281.9,M,21.4,M,,0000*5F
$GPGSA,A,3,23,29,10,25,28,,,,,,,,3.3,2.3,2.3*34
$GPRMC,160131.464,A,3306.6458,S,06418.3295,W,1.67,325.10,081124,,,A*67
$GPGGA,160132.464,3306.6450,S,06418.3287,W,1,05,2.3,283.1,M,21.4,M,,0000*5D
$GPGSA,A,3,23,29,10,25,28,,,,,,,,3.3,2.3,2.3*34
$GPRMC,160132.464,A,3306.6450,S,06418.3287,W,1.65,320.34,081124,,,A*6E
$GPGGA,160133.464,3306.6431,S,06418.3261,W,1,05,2.3,284.9,M,21.4,M,,0000*5C
$GPGSA,A,3,23,29,10,25,28,,,,,,,,3.3,2.3,2.3*34
$GPGSV,3,1,12,23,55,031,25,29,32,096,26,10,23,353,21,25,14,027,16*7B
$GPGSV,3,2,12,28,09,327,11,32,78,082,,16,67,139,,12,38,316,*7B
$GPGSV,3,3,12,27,28,099,,31,21,258,,17,20,119,,13,09,227,*7A
$GPRMC,160133.464,A,3306.6431,S,06418.3261,W,1.47,318.65,081124,,,A*6F
$GPGGA,160134.464,3306.6413,S,06418.3240,W,1,05,2.3,286.8,M,21.4,M,,0000*5B
$GPGSA,A,3,23,29,10,25,28,,,,,,,,3.3,2.3,2.3*34
$GPRMC,160134.464,A,3306.6413,S,06418.3240,W,1.47,316.71,081124,,,A*60
$GPGGA,160135.464,3306.6399,S,06418.3224,W,1,05,2.3,288.7,M,21.4,M,,0000*5C
$GPGSA,A,3,23,29,10,25,28,,,,,,,,3.3,2.3,2.3*34
$GPRMC,160135.464,A,3306.6399,S,06418.3224,W,1.65,313.41,081124,,,A*60
$GPGGA,160136.464,3306.6397,S,06418.3221,W,1,05,2.3,290.0,M,21.4,M,,0000*5A
$GPGSA,A,3,23,29,10,25,28,,,,,,,,3.3,2.3,2.3*34
$GPRMC,160136.464,A,3306.6397,S,06418.3221,W,1.98,303.48,081124,,,A*62
$GPGGA,160137.464,3306.6393,S,06418.3214,W,1,05,2.3,291.4,M,21.4,M,,0000*5C
$GPGSA,A,3,23,29,10,25,28,,,,,,,,3.3,2.3,2.3*34
$GPRMC,160137.464,A,3306.6393,S,06418.3214,W,2.11,291.31,081124,,,A*67
$GPGGA,160138.464,3306.6391,S,06418.3207,W,1,05,2.3,292.6,M,21.4,M,,0000*52
$GPGSA,A,3,23,29,10,25,28,,,,,,,,3.3,2.3,2.3*34
$GPGSV,3,1,12,23,55,031,25,29,32,096,25,10,23,353,22,25,14,027,16*7B
$GPGSV,3,2,12,28,09,327,13,32,78,082,,16,67,139,,12,38,316,*79
$GPGSV,3,3,12,27,28,099,,31,21,258,,17,20,119,,13,09,227,*7A
$GPRMC,160138.464,A,3306.6391,S,06418.3207,W,2.07,279.86,081124,,,A*65
$GPGGA,160139.464,3306.6386,S,06418.3197,W,1,05,2.3,294.0,M,21.4,M,,0000*5F
$GPGSA,A,3,23,29,10,25,28,,,,,,,,3.3,2.3,2.3*34
$GPRMC,160139.464,A,3306.6386,S,06418.3197,W,2.13,270.39,081124,,,A*60
$GPGGA,160140.464,3306.6379,S,06418.3180,W,1,05,2.3,295.2,M,21.4,M,,0000*54
$GPGSA,A,3,23,29,10,25,28,,,,,,,,3.3,2.3,2.3*34
$GPRMC,160140.464,A,3306.6379,S,06418.3180,W,1.52,264.42,081124,,,A*67
$GPGGA,160141.464,3306.6372,S,06418.3167,W,1,05,2.3,296.6,M,21.4,M,,0000*50
$GPGSA,A,3,23,29,10,25,28,,,,,,,,3.3,2.3,2.3*34
$GPRMC,160141.464,A,3306.6372,S,06418.3167,W,1.39,260.85,081124,,,A*66
$GPGGA,160142.464,3306.6357,S,06418.3149,W,1,05,2.3,298.6,M,21.4,M,,0000*56
$GPGSA,A,3,23,29,10,25,28,,,,,,,,3.3,2.3,2.3*34
$GPRMC,160142.464,A,3306.6357,S,06418.3149,W,1.01,260.85,081124,,,A*65
$GPGGA,160143.464,3306.6343,S,06418.3138,W,1,05,2.3,301.0,M,21.4,M,,0000*53
$GPGSA,A,3,23,29,10,25,28,,,,,,,,3.3,2.3,2.3*34
$GPGSV,3,1,12,23,55,031,37,29,32,096,25,10,23,353,22,25,14,027,15*7B
$GPGSV,3,2,12,28,09,327,12,32,78,082,,16,67,139,,12,38,316,*78
$GPGSV,3,3,12,27,28,099,,31,21,258,,17,20,119,,13,09,227,*7A
$GPRMC,160143.464,A,3306.6343,S,06418.3138,W,0.98,260.85,081124,,,A*66
$GPGGA,160144.464,3306.6335,S,06418.3121,W,1,05,2.3,302.5,M,21.4,M,,0000*5B
$GPGSA,A,3,23,29,10,25,28,,,,,,,,3.3,2.3,2.3*34
$GPRMC,160144.464,A,3306.6335,S,06418.3121,W,0.46,260.85,081124,,,A*6B
$GPGGA,160145.464,3306.6327,S,06418.3099,W,1,05,2.3,304.2,M,21.4,M,,0000*5A
$GPGSA,A,3,23,29,10,25,28,,,,,,,,3.3,2.3,2.3*34
$GPRMC,160145.464,A,3306.6327,S,06418.3099,W,0.94,260.85,081124,,,A*64
$GPGGA,160146.464,3306.6316,S,06418.3079,W,1,05,2.3,305.8,M,21.4,M,,0000*5E
$GPGSA,A,3,23,29,10,25,28,,,,,,,,3.3,2.3,2.3*34
$GPRMC,160146.464,A,3306.6316,S,06418.3079,W,0.59,260.85,081124,,,A*6A
$GPGGA,160147.464,3306.6308,S,06418.3059,W,1,05,2.3,307.5,M,21.4,M,,0000*5D
$GPGSA,A,3,23,29,10,25,28,,,,,,,,3.3,2.3,2.3*34
$GPRMC,160147.464,A,3306.6308,S,06418.3059,W,0.80,260.85,081124,,,A*62
$GPGGA,160148.464,3306.6303,S,06418.3044,W,1,05,2.3,309.1,M,21.4,M,,0000*5F
$GPGSA,A,3,23,29,10,25,28,,,,,,,,3.3,2.3,2.3*34
$GPGSV,3,1,12,23,56,032,36,29,32,096,19,10,24,354,21,25,13,027,10*74
$GPGSV,3,2,12,28,09,328,12,32,77,078,,16,66,140,,12,38,315,*71
$GPGSV,3,3,12,27,28,100,,31,21,257,,17,19,120,,13,10,227,*7C
$GPRMC,160148.464,A,3306.6303,S,06418.3044,W,1.19,251.85,081124,,,A*69
$GPGGA,160149.464,3306.6293,S,06418.3026,W,1,05,2.3,310.7,M,21.4,M,,0000*5C
$GPGSA,A,3,23,29,10,25,28,,,,,,,,3.3,2.3,2.3*34
$GPRMC,160149.464,A,3306.6293,S,06418.3026,W,1.30,248.37,081124,,,A*6E
$GPGGA,160150.464,3306.6282,S,06418.3007,W,1,05,2.3,312.8,M,21.4,M,,0000*5A
$GPGSA,A,3,23,29,10,25,28,,,,,,,,3.3,2.3,2.3*34
$GPRMC,160150.464,A,3306.6282,S,06418.3007,W,1.36,247.83,081124,,,A*63
$GPGGA,160151.464,3306.6271,S,06418.2991,W,1,05,2.3,314.8,M,21.4,M,,0000*56
$GPGSA,A,3,23,29,10,25,28,,,,,,,,3.3,2.3,2.3*34
$GPRMC,160151.464,A,3306.6271,S,06418.2991,W,1.70,251.52,081124,,,A*60
$GPGGA,160152.464,3306.6263,S,06418.2976,W,1,05,2.3,316.7,M,21.4,M,,0000*52
$GPGSA,A,3,23,29,10,25,28,,,,,,,,3.3,2.3,2.3*34
$GPRMC,160152.464,A,3306.6263,S,06418.2976,W,1.75,254.19,081124,,,A*66
$GPGGA,160153.464,3306.6253,S,06418.2958,W,1,05,2.3,318.6,M,21.4,M,,0000*53
$GPGSA,A,3,23,29,10,25,28,,,,,,,,3.3,2.3,2.3*34
$GPGSV,3,1,12,23,56,032,30,29,32,096,20,10,24,354,26,25,13,027,11*7E
$GPGSV,3,2,12,28,09,328,12,32,77,078,,16,66,140,,12,38,315,*71
$GPGSV,3,3,12,27,28,100,,31,21,257,,17,19,120,,13,10,227,*7C
$GPRMC,160153.464,A,3306.6253,S,06418.2958,W,1.51,256.66,081124,,,A*64
$GPGGA,160154.464,3306.6242,S,06418.2939,W,1,05,2.3,320.5,M,21.4,M,,0000*5B
$GPGSA,A,3,23,29,10,25,28,,,,,,,,3.3,2.3,2.3*34
$GPRMC,160154.464,A,3306.6242,S,06418.2939,W,1.12,256.66,081124,,,A*63
$GPGGA,160155.464,3306.6234,S,06418.2924,W,1,05,2.3,322.1,M,21.4,M,,0000*51
$GPGSA,A,3,23,29,10,25,28,,,,,,,,3.3,2.3,2.3*34
$GPRMC,160155.464,A,3306.6234,S,06418.2924,W,1.00,256.66,081124,,,A*6C
$GPGGA,160156.464,3306.6224,S,06418.2904,W,1,05,2.3,324.0,M,21.4,M,,0000*56
$GPGSA,A,3,23,29,10,25,28,,,,,,,,3.3,2.3,2.3*34
$GPRMC,160156.464,A,3306.6224,S,06418.2904,W,0.67,256.66,081124,,,A*6C
$GPGGA,160157.464,3306.6221,S,06418.2898,W,1,04,4.6,325.4,M,21.4,M,,0000*51
$GPGSA,A,3,23,29,10,25,,,,,,,,,5.7,4.6,3.4*39
$GPRMC,160157.464,A,3306.6221,S,06418.2898,W,0.74,256.66,081124,,,A*6E
$GPGGA,160158.464,3306.6213,S,06418.2884,W,1,05,2.3,327.2,M,21.4,M,,0000*54
$GPGSA,A,3,23,29,10,25,28,,,,,,,,3.3,2.3,2.3*34
$GPGSV,3,1,12,23,56,032,33,29,32,096,21,10,24,354,27,25,13,027,09*74
$GPGSV,3,2,12,28,09,328,16,32,77,078,,16,66,140,,12,38,315,*75
$GPGSV,3,3,12,27,28,100,,31,21,257,,17,19,120,,13,10,227,*7C
$GPRMC,160158.464,A,3306.6213,S,06418.2884,W,1.01,256.66,081124,,,A*6E
$GPGGA,160159.464,3306.6204,S,06418.2868,W,1,05,2.3,329.1,M,21.4,M,,0000*5C
$GPGSA,A,3,23,29,10,25,28,,,,,,,,3.3,2.3,2.3*34
$GPRMC,160159.464,A,3306.6204,S,06418.2868,W,0.84,256.66,081124,,,A*67
$GPGGA,160200.464,3306.6193,S,06418.2853,W,1,05,2.3,330.6,M,21.4,M,,0000*59
$GPGSA,A,3,23,29,10,25,28,,,,,,,,3.3,2.3,2.3*34
$GPRMC,160200.464,A,3306.6193,S,06418.2853,W,1.00,256.66,081124,,,A*60
$GPGGA,160201.464,3306.6182,S,06418.2845,W,1,05,2.3,332.1,M,21.4,M,,0000*5A
$GPGSA,A,3,23,29,10,25,28,,,,,,,,3.3,2.3,2.3*34
$GPRMC,160201.464,A,3306.6182,S,06418.2845,W,1.69,264.20,081124,,,A*6A
$GPGGA,160202.464,3306.6173,S,06418.2840,W,1,05,2.3,333.6,M,21.4,M,,0000*54
$GPGSA,A,3,23,29,10,25,28,,,,,,,,3.3,2.3,2.3*34
$GPRMC,160202.464,A,3306.6173,S,06418.2840,W,2.08,269.84,081124,,,A*65
$GPGGA,160203.464,3306.6170,S,06418.2838,W,1,05,2.3,334.9,M,21.4,M,,0000*51
$GPGSA,A,3,23,29,10,25,28,,,,,,,,3.3,2.3,2.3*34
$GPGSV,3,1,12,23,56,032,32,29,32,096,19,10,24,354,25,25,13,027,09*7C
$GPGSV,3,2,12,28,09,328,16,32,77,078,,16,66,140,,12,38,315,*75
$GPGSV,3,3,12,27,28,100,,31,21,257,,17,19,120,,13,10,227,*7C
$GPRMC,160203.464,A,3306.6170,S,06418.2838,W,2.26,271.50,081124,,,A*64
$GPGGA,160204.464,3306.6160,S,06418.2829,W,1,04,5.3,336.0,M,21.4,M,,0000*5A
$GPGSA,A,3,23,29,10,28,,,,,,,,,6.2,5.3,3.3*31
$GPRMC,160204.464,A,3306.6160,S,06418.2829,W,2.03,272.83,081124,,,A*68
$GPGGA,160205.464,3306.6150,S,06418.2818,W,1,04,5.3,337.3,M,21.4,M,,0000*58
$GPGSA,A,3,23,29,10,28,,,,,,,,,6.2,5.3,3.3*31
$GPRMC,160205.464,A,3306.6150,S,06418.2818,W,1.60,272.75,081124,,,A*67
$GPGGA,160206.464,3306.6132,S,06418.2810,W,1,04,5.3,339.1,M,21.4,M,,0000*5B
$GPGSA,A,3,23,29,10,28,,,,,,,,,6.2,5.3,3.3*31
$GPRMC,160206.464,A,3306.6132,S,06418.2810,W,1.51,273.86,081124,,,A*67
$GPGGA,160207.464,3306.6114,S,06418.2805,W,1,04,5.3,340.9,M,21.4,M,,0000*5C
$GPGSA,A,3,23,29,10,28,,,,,,,,,6.3,5.3,3.3*30
$GPRMC,160207.464,A,3306.6114,S,06418.2805,W,2.01,277.29,081124,,,A*61
$GPGGA,160208.464,3306.6104,S,06418.2802,W,1,04,5.3,342.1,M,21.4,M,,0000*5F
$GPGSA,A,3,23,29,10,28,,,,,,,,,6.3,5.3,3.3*30
$GPGSV,3,1,12,23,56,032,32,29,32,096,21,10,24,354,25,28,09,328,16*73
$GPGSV,3,2,12,25,13,027,12,32,77,078,,16,66,140,,12,38,315,*7B
$GPGSV,3,3,12,27,28,100,,31,21,257,,17,19,120,,13,10,227,*7C
$GPRMC,160208.464,A,3306.6104,S,06418.2802,W,1.93,278.41,081124,,,A*61
$GPGGA,160209.464,3306.6093,S,06418.2791,W,1,04,5.3,343.3,M,21.4,M,,0000*57
$GPGSA,A,3,23,29,10,28,,,,,,,,,6.3,5.3,3.3*30
$GPRMC,160209.464,A,3306.6093,S,06418.2791,W,1.57,279.03,081124,,,A*65
$GPGGA,160210.464,3306.6081,S,06418.2778,W,1,05,2.3,344.4,M,21.4,M,,0000*5D
$GPGSA,A,3,23,29,10,25,28,,,,,,,,3.3,2.3,2.3*34
$GPRMC,160210.464,A,3306.6081,S,06418.2778,W,1.14,279.03,081124,,,A*6E
$GPGGA,160211.464,3306.6070,S,06418.2764,W,1,05,2.3,345.5,M,21.4,M,,0000*5F
$GPGSA,A,3,23,29,10,25,28,,,,,,,,3.3,2.3,2.3*34
$GPRMC,160211.464,A,3306.6070,S,06418.2764,W,0.86,279.03,081124,,,A*66
$GPGGA,160212.464,3306.6056,S,06418.2748,W,1,05,2.3,346.6,M,21.4,M,,0000*56
$GPGSA,A,3,23,29,10,25,28,,,,,,,,3.3,2.3,2.3*34
$GPRMC,160212.464,A,3306.6056,S,06418.2748,W,1.05,279.03,081124,,,A*65
$GPGGA,160213.464,3306.6041,S,06418.2734,W,1,05,2.3,347.7,M,21.4,M,,0000*5A
$GPGSA,A,3,23,29,10,25,28,,,,,,,,3.3,2.3,2.3*34
$GPGSV,3,1,12,23,56,032,32,29,32,096,19,10,24,354,26,25,13,027,14*73
$GPGSV,3,2,12,28,09,328,15,32,77,078,,16,66,140,,12,38,315,*76
$GPGSV,3,3,12,27,28,100,,31,21,257,,17,19,120,,13,10,227,*7C
$GPRMC,160213.464,A,3306.6041,S,06418.2734,W,1.55,287.06,081124,,,A*68
$GPGGA,160214.464,3306.6025,S,06418.2720,W,1,05,2.3,348.8,M,21.4,M,,0000*5A
$GPGSA,A,3,23,29,10,25,28,,,,,,,,3.3,2.3,2.3*34
$GPRMC,160214.464,A,3306.6025,S,06418.2720,W,1.80,296.87,081124,,,A*69
$GPGGA,160215.464,3306.6009,S,06418.2705,W,1,05,2.3,349.8,M,21.4,M,,0000*53
$GPGSA,A,3,23,29,10,25,28,,,,,,,,3.3,2.3,2.3*34
$GPRMC,160215.464,A,3306.6009,S,06418.2705,W,1.64,304.96,081124,,,A*61
$GPGGA,160216.464,3306.5996,S,06418.2695,W,1,05,2.4,350.6,M,21.4,M,,0000*55
$GPGSA,A,3,23,29,10,25,28,,,,,,,,3.3,2.4,2.3*33
$GPRMC,160216.464,A,3306.5996,S,06418.2695,W,1.54,310.61,081124,,,A*68
$GPGGA,160217.464,3306.5981,S,06418.2679,W,1,05,2.4,351.4,M,21.4,M,,0000*53
$GPGSA,A,3,23,29,10,25,28,,,,,,,,3.3,2.4,2.3*33
$GPRMC,160217.464,A,3306.5981,S,06418.2679,W,1.33,316.43,081124,,,A*6A
$GPGGA,160218.464,3306.5965,S,06418.2661,W,1,05,2.4,352.4,M,21.4,M,,0000*5C
$GPGSA,A,3,23,29,10,25,28,,,,,,,,3.3,2.4,2.3*33
$GPGSV,3,1,12,23,56,032,29,29,32,096,20,10,24,354,26,25,13,027,14*73
$GPGSV,3,2,12,28,09,328,13,32,77,078,,16,66,140,,12,38,315,*70
$GPGSV,3,3,12,27,28,100,,31,21,257,,17,19,120,,13,10,227,*7C
$GPRMC,160218.464,A,3306.5965,S,06418.2661,W,1.77,325.76,081124,,,A*60
$GPGGA,160219.464,3306.5956,S,06418.2652,W,1,05,2.4,353.2,M,21.4,M,,0000*5A
$GPGSA,A,3,23,29,10,25,28,,,,,,,,3.3,2.4,2.3*33
$GPRMC,160219.464,A,3306.5956,S,06418.2652,W,1.68,334.29,081124,,,A*65
$GPGGA,160220.464,3306.5939,S,06418.2641,W,1,05,2.4,354.5,M,21.4,M,,0000*5B
$GPGSA,A,3,23,29,10,25,28,,,,,,,,3.3,2.4,2.3*33
$GPRMC,160220.464,A,3306.5939,S,06418.2641,W,1.68,339.85,081124,,,A*6F
$GPGGA,160221.464,3306.5918,S,06418.2631,W,1,05,2.4,355.9,M,21.4,M,,0000*53
$GPGSA,A,3,23,29,10,25,28,,,,,,,,3.3,2.4,2.3*33
$GPRMC,160221.464,A,3306.5918,S,06418.2631,W,1.66,344.42,081124,,,A*65
$GPGGA,160222.464,3306.5900,S,06418.2622,W,1,05,2.4,357.1,M,21.4,M,,0000*51
$GPGSA,A,3,23,29,10,25,28,,,,,,,,3.3,2.4,2.3*33
$GPRMC,160222.464,A,3306.5900,S,06418.2622,W,1.83,349.81,081124,,,A*64
$GPGGA,160223.464,3306.5885,S,06418.2616,W,1,04,4.7,357.9,M,21.4,M,,0000*57
$GPGSA,A,3,23,29,10,25,,,,,,,,,5.8,4.7,3.4*37
$GPGSV,3,1,12,23,56,032,30,29,32,096,28,10,24,354,26,25,13,027,16*71
$GPGSV,3,2,12,28,09,328,04,32,77,078,,16,66,140,,12,38,315,*76
$GPGSV,3,3,12,27,28,100,,31,21,257,,17,19,120,,13,10,227,*7C
$GPRMC,160223.464,A,3306.5885,S,06418.2616,W,2.04,354.35,081124,,,A*61
$GPGGA,160224.464,3306.5878,S,06418.2611,W,1,04,4.7,358.4,M,21.4,M,,0000*57
$GPGSA,A,3,23,29,10,25,,,,,,,,,5.8,4.7,3.4*37
$GPRMC,160224.464,A,3306.5878,S,06418.2611,W,2.25,357.13,081124,,,A*67
$GPGGA,160225.464,3306.5871,S,06418.2604,W,1,04,4.7,358.8,M,21.4,M,,0000*57
$GPGSA,A,3,23,29,10,25,,,,,,,,,5.8,4.7,3.4*37
$GPRMC,160225.464,A,3306.5871,S,06418.2604,W,2.01,0.58,081124,,,A*63
$GPGGA,160226.464,3306.5864,S,06418.2596,W,1,04,4.7,359.3,M,21.4,M,,0000*52
$GPGSA,A,3,23,29,10,25,,,,,,,,,5.8,4.7,3.4*37
$GPRMC,160226.464,A,3306.5864,S,06418.2596,W,2.36,4.08,081124,,,A*69
$GPGGA,160227.464,3306.5849,S,06418.2584,W,1,05,2.4,360.0,M,21.4,M,,0000*52
$GPGSA,A,3,23,29,10,25,28,,,,,,,,3.3,2.4,2.3*33
$GPRMC,160227.464,A,3306.5849,S,06418.2584,W,2.69,6.23,081124,,,A*65
$GPGGA,160228.464,3306.5828,S,06418.2561,W,1,05,2.4,360.5,M,21.4,M,,0000*54
$GPGSA,A,3,23,29,10,25,28,,,,,,,,3.3,2.4,2.3*33
$GPGSV,3,1,12,23,56,032,29,29,32,096,18,10,24,354,26,25,13,027,16*7A
$GPGSV,3,2,12,28,09,328,12,32,77,078,,16,66,140,,12,38,315,*71
$GPGSV,3,3,12,27,28,100,,31,21,257,,17,19,120,,13,10,227,*7C
$GPRMC,160228.464,A,3306.5828,S,06418.2561,W,3.51,12.66,081124,,,A*58
$GPGGA,160229.464,3306.5809,S,06418.2540,W,1,05,2.4,361.1,M,21.4,M,,0000*50
$GPGSA,A,3,23,29,10,25,28,,,,,,,,3.3,2.4,2.3*33
$GPRMC,160229.464,A,3306.5809,S,06418.2540,W,4.24,20.22,081124,,,A*5D
$GPGGA,160230.464,3306.5793,S,06418.2528,W,1,05,2.4,361.7,M,21.4,M,,0000*5C
$GPGSA,A,3,23,29,10,25,28,,,,,,,,3.3,2.4,2.3*33
$GPRMC,160230.464,A,3306.5793,S,06418.2528,W,4.43,23.11,081124,,,A*55
$GPGGA,160231.464,3306.5775,S,06418.2516,W,1,05,2.4,362.7,M,21.4,M,,0000*5B
$GPGSA,A,3,23,29,10,25,28,,,,,,,,3.3,2.4,2.3*33
$GPRMC,160231.464,A,3306.5775,S,06418.2516,W,4.45,26.06,081124,,,A*54
$GPGGA,160232.464,3306.5759,S,06418.2507,W,1,05,2.4,363.6,M,21.4,M,,0000*56
$GPGSA,A,3,23,29,10,25,28,,,,,,,,3.3,2.4,2.3*33
$GPRMC,160232.464,A,3306.5759,S,06418.2507,W,4.61,27.95,081124,,,A*54
$GPGGA,160233.464,3306.5746,S,06418.2494,W,1,05,2.4,364.5,M,21.4,M,,0000*56
$GPGSA,A,3,23,29,10,25,28,,,,,,,,3.3,2.4,2.3*33
$GPGSV,3,1,12,23,56,032,29,29,32,096,27,10,24,354,26,25,13,027,15*75
$GPGSV,3,2,12,28,09,328,08,32,77,078,,16,66,140,,12,38,315,*7A
$GPGSV,3,3,12,27,28,100,,31,21,257,,17,19,120,,13,10,227,*7C
$GPRMC,160233.464,A,3306.5746,S,06418.2494,W,4.68,30.82,081124,,,A*59
$GPGGA,160234.464,3306.5733,S,06418.2483,W,1,04,4.7,364.9,M,21.4,M,,0000*5D
$GPGSA,A,3,23,29,10,25,,,,,,,,,5.8,4.7,3.4*37
$GPRMC,160234.464,A,3306.5733,S,06418.2483,W,4.61,33.81,081124,,,A*53
$GPGGA,160235.464,3306.5714,S,06418.2466,W,1,05,2.4,365.5,M,21.4,M,,0000*5B
$GPGSA,A,3,23,29,10,25,28,,,,,,,,3.3,2.4,2.3*33
$GPRMC,160235.464,A,3306.5714,S,06418.2466,W,4.93,35.37,081124,,,A*5A
$GPGGA,160236.464,3306.5703,S,06418.2466,W,1,05,2.4,366.3,M,21.4,M,,0000*5B
$GPGSA,A,3,23,29,10,25,28,,,,,,,,3.3,2.4,2.3*33
$GPRMC,160236.464,A,3306.5703,S,06418.2466,W,4.40,35.13,081124,,,A*57
$GPGGA,160237.464,3306.5690,S,06418.2458,W,1,05,2.4,366.9,M,21.4,M,,0000*56
$GPGSA,A,3,23,29,10,25,28,,,,,,,,3.3,2.4,2.3*33
$GPRMC,160237.464,A,3306.5690,S,06418.2458,W,4.33,35.54,081124,,,A*57
$GPGGA,160238.464,3306.5674,S,06418.2447,W,1,05,2.4,367.7,M,21.4,M,,0000*52
$GPGSA,A,3,23,29,10,25,28,,,,,,,,3.3,2.4,2.3*33
$GPGSV,3,1,12,23,56,032,27,29,32,096,26,10,24,354,21,25,13,027,15*7D
$GPGSV,3,2,12,28,09,328,09,32,77,078,,16,66,140,,12,38,315,*7B
$GPGSV,3,3,12,27,28,100,,31,21,257,,17,19,120,,13,10,227,*7C
$GPRMC,160238.464,A,3306.5674,S,06418.2447,W,4.14,36.09,081124,,,A*52
$GPGGA,160239.464,3306.5665,S,06418.2433,W,1,05,2.4,368.1,M,21.4,M,,0000*59
$GPGSA,A,3,23,29,10,25,28,,,,,,,,3.3,2.4,2.3*33
$GPRMC,160239.464,A,3306.5665,S,06418.2433,W,4.15,38.49,081124,,,A*5B
$GPGGA,160240.464,3306.5644,S,06418.2400,W,1,05,2.4,368.8,M,21.4,M,,0000*5D
$GPGSA,A,3,23,29,10,25,28,,,,,,,,3.3,2.4,2.3*33
$GPRMC,160240.464,A,3306.5644,S,06418.2400,W,4.75,41.80,081124,,,A*5B
$GPGGA,160241.464,3306.5636,S,06418.2384,W,1,05,2.4,369.1,M,21.4,M,,0000*5A
$GPGSA,A,3,23,29,10,25,28,,,,,,,,3.3,2.4,2.3*33
$GPRMC,160241.464,A,3306.5636,S,06418.2384,W,4.34,46.25,081124,,,A*59
$GPGGA,160242.464,3306.5624,S,06418.2361,W,1,05,2.4,369.5,M,21.4,M,,0000*55
$GPGSA,A,3,23,29,10,25,28,,,,,,,,3.3,2.4,2.3*33
$GPRMC,160242.464,A,3306.5624,S,06418.2361,W,4.15,49.71,081124,,,A*5F
$GPGGA,160243.464,3306.5610,S,06418.2339,W,1,05,2.4,369.9,M,21.4,M,,0000*52
$GPGSA,A,3,23,29,10,25,28,,,,,,,,3.3,2.4,2.3*33
$GPGSV,3,1,12,23,56,032,20,29,32,096,21,10,24,354,23,25,13,027,15*7F
$GPGSV,3,2,12,28,09,328,21,32,77,078,,16,66,140,,12,38,315,*71
$GPGSV,3,3,12,27,28,100,,31,21,257,,17,19,120,,13,10,227,*7C
$GPRMC,160243.464,A,3306.5610,S,06418.2339,W,3.94,51.83,081124,,,A*5E
$GPGGA,160244.464,3306.5594,S,06418.2315,W,1,05,2.4,370.2,M,21.4,M,,0000*57
$GPGSA,A,3,23,29,10,25,28,,,,,,,,3.3,2.4,2.2*32
$GPRMC,160244.464,A,3306.5594,S,06418.2315,W,4.06,53.04,081124,,,A*59
$GPGGA,160245.464,3306.5580,S,06418.2293,W,1,05,2.4,370.8,M,21.4,M,,0000*56
$GPGSA,A,3,23,29,10,25,28,,,,,,,,3.3,2.4,2.2*32
$GPRMC,160245.464,A,3306.5580,S,06418.2293,W,3.86,53.37,081124,,,A*5D
$GPGGA,160246.464,3306.5562,S,06418.2270,W,1,05,2.4,371.5,M,21.4,M,,0000*58
$GPGSA,A,3,23,29,10,25,28,,,,,,,,3.3,2.4,2.2*32
$GPRMC,160246.464,A,3306.5562,S,06418.2270,W,3.69,54.35,081124,,,A*5B
$GPGGA,160247.464,3306.5551,S,06418.2256,W,1,04,4.7,372.1,M,21.4,M,,0000*5E
$GPGSA,A,3,23,29,10,25,,,,,,,,,5.8,4.7,3.4*37
$GPRMC,160247.464,A,3306.5551,S,06418.2256,W,3.79,56.89,081124,,,A*5A
$GPGGA,160248.464,3306.5533,S,06418.2238,W,1,05,2.4,372.8,M,21.4,M,,0000*50
$GPGSA,A,3,23,29,10,25,28,,,,,,,,3.3,2.4,2.2*32
$GPGSV,3,1,12,23,56,032,29,29,32,096,24,10,24,354,19,25,13,027,09*77
$GPGSV,3,2,12,28,09,328,16,32,77,078,,16,66,140,,12,38,315,*75
$GPGSV,3,3,12,27,28,100,,31,21,257,,17,19,120,,13,10,227,*7C
$GPRMC,160248.464,A,3306.5533,S,06418.2238,W,3.86,56.48,081124,,,A*54
$GPGGA,160249.464,3306.5518,S,06418.2224,W,1,04,4.7,373.2,M,21.4,M,,0000*5A
$GPGSA,A,3,23,29,10,25,,,,,,,,,5.9,4.7,3.4*36
$GPRMC,160249.464,A,3306.5518,S,06418.2224,W,3.94,54.81,081124,,,A*55
$GPGGA,160250.464,3306.5505,S,06418.2208,W,1,04,4.7,373.8,M,21.4,M,,0000*5A
$GPGSA,A,3,23,29,10,25,,,,,,,,,5.9,4.7,3.4*36
$GPRMC,160250.464,A,3306.5505,S,06418.2208,W,4.12,55.75,081124,,,A*5C
$GPGGA,160251.464,3306.5492,S,06418.2190,W,1,04,4.7,374.4,M,21.4,M,,0000*5D
$GPGSA,A,3,23,29,10,25,,,,,,,,,5.9,4.7,3.4*36
$GPRMC,160251.464,A,3306.5492,S,06418.2190,W,4.45,58.30,081124,,,A*5E
$GPGGA,160252.464,3306.5487,S,06418.2179,W,1,03,50.0,374.8,M,21.4,M,,0000*60
$GPGSA,A,2,23,29,10,,,,,,,,,,50.0,50.0,3.2*39
$GPRMC,160252.464,A,3306.5487,S,06418.2179,W,4.27,58.82,081124,,,A*53
$GPGGA,160253.464,3306.5483,S,06418.2166,W,1,03,50.0,375.2,M,21.4,M,,0000*60
$GPGSA,A,2,23,29,10,,,,,,,,,,50.0,50.0,3.2*39
$GPGSV,3,1,12,23,56,032,29,29,32,096,14,10,24,354,25,25,13,027,08*7A
$GPGSV,3,2,12,28,09,328,04,32,77,078,,16,66,140,,12,38,315,*76
$GPGSV,3,3,12,27,28,100,,31,21,257,,17,19,120,,13,10,227,*7C
$GPRMC,160253.464,A,3306.5483,S,06418.2166,W,4.27,59.46,081124,,,A*51
$GPGGA,160254.464,3306.5476,S,06418.2155,W,1,03,50.0,375.1,M,21.4,M,,0000*6E
$GPGSA,A,2,23,29,10,,,,,,,,,,50.0,50.0,3.2*39
$GPRMC,160254.464,A,3306.5476,S,06418.2155,W,4.14,59.08,081124,,,A*56
$GPGGA,160255.464,3306.5471,S,06418.2142,W,1,03,50.0,375.0,M,21.4,M,,0000*6F
$GPGSA,A,2,23,29,10,,,,,,,,,,50.0,50.0,3.2*39
$GPRMC,160255.464,A,3306.5471,S,06418.2142,W,4.25,59.52,081124,,,A*5B
$GPGGA,160256.464,3306.5466,S,06418.2129,W,1,03,50.0,374.8,M,21.4,M,,0000*6E
$GPGSA,A,2,23,29,10,,,,,,,,,,50.0,50.0,3.2*39
$GPRMC,160256.464,A,3306.5466,S,06418.2129,W,4.37,60.63,081124,,,A*58
$GPGGA,160257.464,3306.5461,S,06418.2117,W,1,03,50.0,374.7,M,21.4,M,,0000*6A
$GPGSA,A,2,23,29,10,,,,,,,,,,50.0,50.0,3.2*39
$GPRMC,160257.464,A,3306.5461,S,06418.2117,W,4.30,61.29,081124,,,A*5B
$GPGGA,160258.464,3306.5453,S,06418.2110,W,1,03,50.0,374.8,M,21.4,M,,0000*6C
$GPGSA,A,2,23,29,10,,,,,,,,,,50.0,50.0,3.2*39
$GPGSV,3,1,12,23,56,032,20,29,32,096,24,10,24,354,16,25,13,027,05*7D
$GPGSV,3,2,12,28,09,328,04,32,77,078,,16,66,140,,12,38,315,*76
$GPGSV,3,3,12,27,28,100,,31,21,257,,17,19,120,,13,10,227,*7C
$GPRMC,160258.464,A,3306.5453,S,06418.2110,W,4.08,61.05,081124,,,A*57
$GPGGA,160259.464,3306.5445,S,06418.2104,W,1,03,50.0,374.8,M,21.4,M,,0000*6F
$GPGSA,A,2,23,29,10,,,,,,,,,,50.0,50.0,3.2*39
$GPRMC,160259.464,A,3306.5445,S,06418.2104,W,4.04,59.96,081124,,,A*59
$GPGGA,160300.464,3306.5438,S,06418.2093,W,1,03,50.0,374.9,M,21.4,M,,0000*66
$GPGSA,A,2,23,29,10,,,,,,,,,,50.0,50.0,3.2*39
$GPRMC,160300.464,A,3306.5438,S,06418.2093,W,4.04,59.80,081124,,,A*56
$GPGGA,160301.468,3306.5422,S,06418.2067,W,1,04,5.4,375.5,M,21.4,M,,0000*55
$GPGSA,A,3,23,29,10,28,,,,,,,,,6.3,5.4,3.2*36
$GPRMC,160301.468,A,3306.5422,S,06418.2067,W,4.59,61.01,081124,,,A*51
$GPGGA,160302.468,3306.5414,S,06418.2051,W,1,05,2.4,376.1,M,21.4,M,,0000*57
$GPGSA,A,3,23,29,10,25,28,,,,,,,,3.3,2.4,2.2*32
$GPRMC,160302.468,A,3306.5414,S,06418.2051,W,4.50,61.70,081124,,,A*5D
$GPGGA,160303.468,3306.5416,S,06418.2039,W,1,05,2.4,377.0,M,21.4,M,,0000*5A
$GPGSA,A,3,23,29,10,25,28,,,,,,,,3.3,2.4,2.2*32
$GPGSV,3,1,12,23,56,032,28,29,32,096,26,10,24,354,29,25,13,027,17*78
$GPGSV,3,2,12,28,09,328,11,32,77,078,,16,66,140,,12,38,315,*72
$GPGSV,3,3,12,27,28,100,,31,21,257,,17,19,120,,13,10,227,*7C
$GPRMC,160303.468,A,3306.5416,S,06418.2039,W,4.37,64.98,081124,,,A*52
$GPGGA,160304.465,3306.5417,S,06418.2025,W,1,05,2.4,377.7,M,21.4,M,,0000*5B
$GPGSA,A,3,23,29,10,25,28,,,,,,,,3.3,2.4,2.2*32
$GPRMC,160304.465,A,3306.5417,S,06418.2025,W,4.34,68.25,081124,,,A*5D
$GPGGA,160305.465,3306.5414,S,06418.2011,W,1,05,2.4,378.8,M,21.4,M,,0000*5E
$GPGSA,A,3,23,29,10,25,28,,,,,,,,3.3,2.4,2.2*32
$GPRMC,160305.465,A,3306.5414,S,06418.2011,W,4.16,69.41,081124,,,A*5B
$GPGGA,160306.465,3306.5415,S,06418.1999,W,1,05,2.4,380.2,M,21.4,M,,0000*5B
$GPGSA,A,3,23,29,10,25,28,,,,,,,,3.3,2.4,2.2*32
$GPRMC,160306.465,A,3306.5415,S,06418.1999,W,4.40,71.74,081124,,,A*5F
$GPGGA,160307.465,3306.5420,S,06418.1993,W,1,05,2.4,381.4,M,21.4,M,,0000*51
$GPGSA,A,3,23,29,10,25,28,,,,,,,,3.3,2.4,2.2*32
$GPRMC,160307.465,A,3306.5420,S,06418.1993,W,4.08,73.42,081124,,,A*59
$GPGGA,160308.465,3306.5424,S,06418.1988,W,1,05,2.4,382.3,M,21.4,M,,0000*54
$GPGSA,A,3,23,29,10,25,28,,,,,,,,3.3,2.4,2.2*32
$GPGSV,3,1,12,23,56,032,35,29,32,096,28,10,24,354,29,25,13,027,15*78
$GPGSV,3,2,12,28,09,328,11,32,77,078,,16,66,140,,12,38,315,*72
$GPGSV,3,3,12,27,28,100,,31,21,257,,17,19,120,,13,10,227,*7C
$GPRMC,160308.465,A,3306.5424,S,06418.1988,W,4.01,74.91,081124,,,A*58
$GPGGA,160309.465,3306.5437,S,06418.1995,W,1,05,2.4,383.3,M,21.4,M,,0000*5A
$GPGSA,A,3,23,29,10,25,28,,,,,,,,3.3,2.4,2.2*32
$GPRMC,160309.465,A,3306.5437,S,06418.1995,W,3.41,77.63,081124,,,A*5A
$GPGGA,160310.465,3306.5437,S,06418.1985,W,1,05,2.4,384.3,M,21.4,M,,0000*54
$GPGSA,A,3,23,29,10,25,28,,,,,,,,3.3,2.4,2.2*32
$GPRMC,160310.465,A,3306.5437,S,06418.1985,W,3.44,79.06,081124,,,A*5B
$GPGGA,160311.465,3306.5427,S,06418.1964,W,1,05,2.4,385.1,M,21.4,M,,0000*58
$GPGSA,A,3,23,29,10,25,28,,,,,,,,3.3,2.4,2.2*32
$GPRMC,160311.465,A,3306.5427,S,06418.1964,W,3.95,77.22,081124,,,A*50
$GPGGA,160312.464,3306.5420,S,06418.1945,W,1,05,2.4,385.9,M,21.4,M,,0000*56
$GPGSA,A,3,23,29,10,25,28,,,,,,,,3.3,2.4,2.2*32
$GPRMC,160312.464,A,3306.5420,S,06418.1945,W,4.62,74.49,081124,,,A*57
$GPGGA,160313.464,3306.5423,S,06418.1941,W,1,05,2.4,386.6,M,21.4,M,,0000*5C
$GPGSA,A,3,23,29,10,25,28,,,,,,,,3.3,2.4,2.2*32
$GPGSV,3,1,12,23,56,032,34,29,32,096,28,10,24,354,29,25,13,027,16*7A
$GPGSV,3,2,12,28,09,328,11,32,77,078,,16,66,140,,12,38,315,*72
$GPGSV,3,3,12,27,28,100,,31,21,257,,17,19,120,,13,10,227,*7C
$GPRMC,160313.464,A,3306.5423,S,06418.1941,W,4.26,72.36,081124,,,A*5F
$GPGGA,160314.464,3306.5421,S,06418.1928,W,1,05,2.4,387.3,M,21.4,M,,0000*52
$GPGSA,A,3,23,29,10,25,28,,,,,,,,3.3,2.4,2.2*32
$GPRMC,160314.464,A,3306.5421,S,06418.1928,W,4.44,72.33,081124,,,A*54
$GPGGA,160315.464,3306.5424,S,06418.1921,W,1,05,2.4,387.9,M,21.4,M,,0000*55
$GPGSA,A,3,23,29,10,25,28,,,,,,,,3.3,2.4,2.2*32
$GPRMC,160315.464,A,3306.5424,S,06418.1921,W,4.27,73.71,081124,,,A*5B
$GPGGA,160316.464,3306.5423,S,06418.1910,W,1,05,2.4,388.5,M,21.4,M,,0000*50
$GPGSA,A,3,23,29,10,25,28,,,,,,,,3.3,2.4,2.2*32
$GPRMC,160316.464,A,3306.5423,S,06418.1910,W,4.42,75.67,081124,,,A*5F
$GPGGA,160317.464,3306.5427,S,06418.1902,W,1,05,2.4,389.1,M,21.4,M,,0000*53
$GPGSA,A,3,23,29,10,25,28,,,,,,,,3.3,2.4,2.2*32
$GPRMC,160317.464,A,3306.5427,S,06418.1902,W,4.11,77.51,081124,,,A*58
$GPGGA,160318.464,3306.5427,S,06418.1893,W,1,05,2.4,389.8,M,21.4,M,,0000*5C
$GPGSA,A,3,23,29,10,25,28,,,,,,,,3.3,2.4,2.2*32
$GPGSV,3,1,12,23,56,032,34,29,32,096,28,10,24,354,28,25,13,027,15*78
$GPGSV,3,2,12,28,09,328,11,32,77,078,,16,66,140,,12,38,315,*72
$GPGSV,3,3,12,27,28,100,,31,21,257,,17,19,120,,13,10,227,*7C
$GPRMC,160318.464,A,3306.5427,S,06418.1893,W,3.77,79.36,081124,,,A*56
$GPGGA,160319.464,3306.5421,S,06418.1877,W,1,05,2.4,390.4,M,21.4,M,,0000*55
$GPGSA,A,3,23,29,10,25,28,,,,,,,,3.3,2.4,2.2*32
$GPRMC,160319.464,A,3306.5421,S,06418.1877,W,3.84,79.63,081124,,,A*57
$GPGGA,160320.464,3306.5415,S,06418.1861,W,1,05,2.4,390.8,M,21.4,M,,0000*53
$GPGSA,A,3,23,29,10,25,28,,,,,,,,3.3,2.4,2.2*32
$GPRMC,160320.464,A,3306.5415,S,06418.1861,W,3.66,78.66,081124,,,A*55
$GPGGA,160321.464,3306.5406,S,06418.1843,W,1,05,2.4,391.2,M,21.4,M,,0000*5B
$GPGSA,A,3,23,29,10,25,28,,,,,,,,3.3,2.4,2.2*32
$GPRMC,160321.464,A,3306.5406,S,06418.1843,W,3.26,77.26,081124,,,A*59
$GPGGA,160322.464,3306.5402,S,06418.1829,W,1,05,2.4,391.6,M,21.4,M,,0000*54
$GPGSA,A,3,23,29,10,25,28,,,,,,,,3.3,2.4,2.2*32
$GPRMC,160322.464,A,3306.5402,S,06418.1829,W,3.14,76.42,081124,,,A*50
$GPGGA,160323.464,3306.5399,S,06418.1813,W,1,05,2.4,392.0,M,21.4,M,,0000*5C
$GPGSA,A,3,23,29,10,25,28,,,,,,,,3.3,2.4,2.2*32
$GPGSV,3,1,12,23,56,032,34,29,32,096,24,10,24,354,25,25,13,027,15*79
$GPGSV,3,2,12,28,09,328,19,32,77,078,,16,66,140,,12,38,315,*7A
$GPGSV,3,3,12,27,28,100,,31,21,257,,17,19,120,,13,10,227,*7C
$GPRMC,160323.464,A,3306.5399,S,06418.1813,W,3.17,78.13,081124,,,A*54
$GPGGA,160324.464,3306.5392,S,06418.1799,W,1,05,2.4,392.5,M,21.4,M,,0000*58
$GPGSA,A,3,23,29,10,25,28,,,,,,,,3.3,2.4,2.2*32
$GPRMC,160324.464,A,3306.5392,S,06418.1799,W,2.88,78.30,081124,,,A*53
$GPGGA,160325.468,3306.5387,S,06418.1781,W,1,05,2.4,393.0,M,21.4,M,,0000*5C
$GPGSA,A,3,23,29,10,25,28,,,,,,,,3.3,2.4,2.2*32
$GPRMC,160325.468,A,3306.5387,S,06418.1781,W,2.77,79.52,081124,,,A*56
$GPGGA,160326.468,3306.5380,S,06418.1762,W,1,05,2.4,393.4,M,21.4,M,,0000*51
$GPGSA,A,3,23,29,10,25,28,,,,,,,,3.3,2.4,2.2*32
$GPRMC,160326.468,A,3306.5380,S,06418.1762,W,2.60,80.22,081124,,,A*58
$GPGGA,160327.468,3306.5371,S,06418.1745,W,1,05,2.4,393.8,M,21.4,M,,0000*57
$GPGSA,A,3,23,29,10,25,28,,,,,,,,3.3,2.4,2.2*32
$GPRMC,160327.468,A,3306.5371,S,06418.1745,W,2.59,79.81,081124,,,A*57
$GPGGA,160328.464,3306.5366,S,06418.1732,W,1,05,2.4,394.1,M,21.4,M,,0000*5C
$GPGSA,A,3,23,29,10,25,28,,,,,,,,3.3,2.4,2.2*32
$GPGSV,3,1,12,23,56,032,28,29,32,096,17,10,24,354,20,25,13,027,15*71
$GPGSV,3,2,12,28,09,328,19,32,77,078,,16,66,140,,12,38,315,*7A
$GPGSV,3,3,12,27,28,100,,31,21,257,,17,19,120,,13,10,227,*7C
$GPRMC,160328.464,A,3306.5366,S,06418.1732,W,2.13,79.83,081124,,,A*5E
$GPGGA,160329.468,3306.5361,S,06418.1724,W,1,05,2.4,394.5,M,21.4,M,,0000*55
$GPGSA,A,3,23,29,10,25,28,,,,,,,,3.3,2.4,2.2*32
$GPRMC,160329.468,A,3306.5361,S,06418.1724,W,1.61,78.77,081124,,,A*5F
$GPGGA,160330.464,3306.5357,S,06418.1716,W,1,05,2.4,394.8,M,21.4,M,,0000*58
$GPGSA,A,3,23,29,10,25,28,,,,,,,,3.3,2.4,2.2*32
$GPRMC,160330.464,A,3306.5357,S,06418.1716,W,1.28,78.25,081124,,,A*55
$GPGGA,160331.468,3306.5360,S,06418.1714,W,1,05,2.4,395.1,M,21.4,M,,0000*5B
$GPGSA,A,3,23,29,10,25,28,,,,,,,,3.3,2.4,2.2*32
$GPRMC,160331.468,A,3306.5360,S,06418.1714,W,0.82,78.25,081124,,,A*5F
$GPGGA,160332.464,3306.5366,S,06418.1715,W,1,05,2.4,395.3,M,21.4,M,,0000*51
$GPGSA,A,3,23,29,10,25,28,,,,,,,,3.3,2.4,2.2*32
$GPRMC,160332.464,A,3306.5366,S,06418.1715,W,1.05,78.25,081124,,,A*59
$GPGGA,160333.468,3306.5363,S,06418.1707,W,1,05,2.4,395.5,M,21.4,M,,0000*5C
$GPGSA,A,3,23,29,10,25,28,,,,,,,,3.3,2.4,2.2*32
$GPGSV,3,1,12,23,56,032,22,29,32,096,17,10,24,354,21,25,13,027,15*7A
$GPGSV,3,2,12,28,09,328,18,32,77,078,,16,66,140,,12,38,315,*7B
$GPGSV,3,3,12,27,28,100,,31,21,257,,17,19,120,,13,10,227,*7C
$GPRMC,160333.468,A,3306.5363,S,06418.1707,W,0.86,78.25,081124,,,A*58
$GPGGA,160334.464,3306.5358,S,06418.1697,W,1,05,2.4,395.8,M,21.4,M,,0000*5A
$GPGSA,A,3,23,29,10,25,28,,,,,,,,3.3,2.4,2.2*32
$GPRMC,160334.464,A,3306.5358,S,06418.1697,W,0.74,78.25,081124,,,A*5E
$GPGGA,160335.468,3306.5357,S,06418.1692,W,1,05,2.4,396.1,M,21.4,M,,0000*57
$GPGSA,A,3,23,29,10,25,28,,,,,,,,3.3,2.4,2.2*32
$GPRMC,160335.468,A,3306.5357,S,06418.1692,W,0.69,78.25,081124,,,A*55
$GPGGA,160336.464,3306.5356,S,06418.1688,W,1,05,2.4,396.1,M,21.4,M,,0000*52
$GPGSA,A,3,23,29,10,25,28,,,,,,,,3.3,2.4,2.2*32
$GPRMC,160336.464,A,3306.5356,S,06418.1688,W,0.76,78.25,081124,,,A*5E
$GPGGA,160337.468,3306.5360,S,06418.1684,W,1,05,2.4,396.3,M,21.4,M,,0000*54
$GPGSA,A,3,23,29,10,25,28,,,,,,,,3.3,2.4,2.2*32
$GPRMC,160337.468,A,3306.5360,S,06418.1684,W,1.13,78.25,081124,,,A*58
$GPGGA,160338.000,3306.5365,S,06418.1682,W,1,05,2.4,396.6,M,21.4,M,,0000*57
$GPGSA,A,3,23,29,10,25,28,,,,,,,,3.3,2.4,2.2*32
$GPGSV,3,1,12,23,56,032,30,29,32,096,18,10,24,354,20,25,13,027,15*77
$GPGSV,3,2,12,28,09,328,16,32,77,078,,16,66,140,,12,38,315,*75
$GPGSV,3,3,12,27,28,100,,31,21,257,,17,19,120,,13,10,227,*7C
$GPRMC,160338.000,A,3306.5365,S,06418.1682,W,1.60,90.18,081124,,,A*52
$GPGGA,160339.000,3306.5371,S,06418.1676,W,1,05,2.4,396.9,M,21.4,M,,0000*57
$GPGSA,A,3,23,29,10,25,28,,,,,,,,3.3,2.4,2.2*32
$GPRMC,160339.000,A,3306.5371,S,06418.1676,W,1.78,102.73,081124,,,A*63
$GPGGA,160340.000,3306.5375,S,06418.1669,W,1,05,2.4,397.2,M,21.4,M,,0000*59
$GPGSA,A,3,23,29,10,25,28,,,,,,,,3.3,2.4,2.2*32
$GPRMC,160340.000,A,3306.5375,S,06418.1669,W,2.15,113.36,081124,,,A*6E
$GPGGA,160341.000,3306.5376,S,06418.1663,W,1,05,2.4,397.8,M,21.4,M,,0000*5B
$GPGSA,A,3,23,29,10,25,28,,,,,,,,3.3,2.4,2.2*32
$GPRMC,160341.000,A,3306.5376,S,06418.1663,W,2.24,119.04,081124,,,A*6F
$GPGGA,160342.000,3306.5385,S,06418.1658,W,1,05,2.4,398.2,M,21.4,M,,0000*59
$GPGSA,A,3,23,29,10,25,28,,,,,,,,3.3,2.4,2.2*32
$GPRMC,160342.000,A,3306.5385,S,06418.1658,W,1.94,122.42,081124,,,A*6A
$GPGGA,160343.000,3306.5395,S,06418.1656,W,1,05,2.4,398.3,M,21.4,M,,0000*56
$GPGSA,A,3,23,29,10,25,28,,,,,,,,3.3,2.4,2.2*32
$GPGSV,3,1,12,23,56,032,23,29,32,096,24,10,24,354,26,25,13,027,16*7F
$GPGSV,3,2,12,28,09,328,15,32,77,078,,16,66,140,,12,38,315,*76
$GPGSV,3,3,12,27,28,100,,31,21,257,,17,19,120,,13,10,227,*7C
$GPRMC,160343.000,A,3306.5395,S,06418.1656,W,2.06,126.88,081124,,,A*6E
$GPGGA,160344.000,3306.5400,S,06418.1654,W,1,05,2.4,398.8,M,21.4,M,,0000*53
$GPGSA,A,3,23,29,10,25,28,,,,,,,,3.3,2.4,2.2*32
$GPRMC,160344.000,A,3306.5400,S,06418.1654,W,2.12,132.13,081124,,,A*62
$GPGGA,160345.000,3306.5407,S,06418.1652,W,1,05,2.4,398.9,M,21.4,M,,0000*52
$GPGSA,A,3,23,29,10,25,28,,,,,,,,3.3,2.4,2.2*32
$GPRMC,160345.000,A,3306.5407,S,06418.1652,W,1.93,136.60,081124,,,A*68
$GPGGA,160346.000,3306.5411,S,06418.1650,W,1,05,2.4,399.1,M,21.4,M,,0000*5D
$GPGSA,A,3,23,29,10,25,28,,,,,,,,3.3,2.4,2.2*32
$GPRMC,160346.000,A,3306.5411,S,06418.1650,W,1.51,138.53,081124,,,A*6E
$GPGGA,160347.000,3306.5412,S,06418.1646,W,1,05,2.4,399.3,M,21.4,M,,0000*5A
$GPGSA,A,3,23,29,10,25,28,,,,,,,,3.3,2.4,2.2*32
$GPRMC,160347.000,A,3306.5412,S,06418.1646,W,1.19,138.62,081124,,,A*65
$GPGGA,160348.000,3306.5414,S,06418.1641,W,1,05,2.4,399.8,M,21.4,M,,0000*5F
$GPGSA,A,3,23,29,10,25,28,,,,,,,,3.3,2.4,2.2*32
$GPGSV,3,1,12,23,56,032,24,29,32,096,25,10,24,354,21,25,13,027,16*7E
$GPGSV,3,2,12,28,09,328,14,32,77,078,,16,66,140,,12,38,315,*77
$GPGSV,3,3,12,27,28,100,,31,21,257,,17,19,120,,13,10,227,*7C
$GPRMC,160348.000,A,3306.5414,S,06418.1641,W,1.66,137.23,081124,,,A*69
$GPGGA,160349.000,3306.5417,S,06418.1635,W,1,05,2.4,399.9,M,21.4,M,,0000*5F
$GPGSA,A,3,23,29,10,25,28,,,,,,,,3.3,2.4,2.2*32
$GPRMC,160349.000,A,3306.5417,S,06418.1635,W,1.56,135.31,081124,,,A*6A
$GPGGA,160350.000,3306.5421,S,06418.1631,W,1,05,2.4,400.4,M,21.4,M,,0000*5C
$GPGSA,A,3,23,29,10,25,28,,,,,,,,3.3,2.4,2.2*32
$GPRMC,160350.000,A,3306.5421,S,06418.1631,W,2.18,132.84,081124,,,A*63
$GPGGA,160351.000,3306.5421,S,06418.1627,W,1,05,2.4,401.3,M,21.4,M,,0000*5C
$GPGSA,A,3,23,29,10,25,28,,,,,,,,3.3,2.4,2.2*32
$GPRMC,160351.000,A,3306.5421,S,06418.1627,W,2.35,129.93,081124,,,A*66
$GPGGA,160352.000,3306.5428,S,06418.1621,W,1,05,2.4,402.2,M,21.4,M,,0000*52
$GPGSA,A,3,23,29,10,25,28,,,,,,,,3.3,2.4,2.2*32
$GPRMC,160352.000,A,3306.5428,S,06418.1621,W,2.42,127.50,081124,,,A*6B
$GPGGA,160353.000,3306.5433,S,06418.1615,W,1,05,2.4,402.9,M,21.4,M,,0000*55
$GPGSA,A,3,23,29,10,25,28,,,,,,,,3.3,2.4,2.2*32
$GPGSV,3,1,12,23,56,032,34,29,32,096,26,10,24,354,27,25,13,027,15*79
$GPGSV,3,2,12,28,09,328,13,32,77,078,,16,66,140,,12,38,315,*70
$GPGSV,3,3,12,27,28,100,,31,21,257,,17,19,120,,13,10,227,*7C
$GPRMC,160353.000,A,3306.5433,S,06418.1615,W,2.32,125.29,081124,,,A*6C
$GPGGA,160354.000,3306.5429,S,06418.1603,W,1,05,2.4,403.5,M,21.4,M,,0000*53
$GPGSA,A,3,23,29,10,25,28,,,,,,,,3.3,2.4,2.2*32
$GPRMC,160354.000,A,3306.5429,S,06418.1603,W,2.28,122.75,081124,,,A*62
$GPGGA,160355.000,3306.5424,S,06418.1589,W,1,04,5.6,404.0,M,21.4,M,,0000*58
$GPGSA,A,3,23,29,10,28,,,,,,,,,6.4,5.6,3.1*30
$GPRMC,160355.000,A,3306.5424,S,06418.1589,W,2.51,117.80,081124,,,A*6D
$GPGGA,160356.000,3306.5425,S,06418.1581,W,1,04,5.6,404.3,M,21.4,M,,0000*51
$GPGSA,A,3,23,29,10,28,,,,,,,,,6.4,5.6,3.1*30
$GPRMC,160356.000,A,3306.5425,S,06418.1581,W,2.63,114.04,081124,,,A*69
$GPGGA,160357.000,3306.5427,S,06418.1573,W,1,04,5.6,404.6,M,21.4,M,,0000*5A
$GPGSA,A,3,23,29,10,28,,,,,,,,,6.4,5.6,3.1*30
$GPRMC,160357.000,A,3306.5427,S,06418.1573,W,2.66,111.83,081124,,,A*68
$GPGGA,160358.000,3306.5427,S,06418.1565,W,1,04,5.6,404.9,M,21.4,M,,0000*5D
$GPGSA,A,3,23,29,10,28,,,,,,,,,6.4,5.6,3.1*30
$GPGSV,3,1,12,23,56,032,33,29,32,096,25,10,24,354,19,28,09,328,14*7B
$GPGSV,3,2,12,25,13,027,04,32,77,078,,16,66,140,,12,38,315,*7C
$GPGSV,3,3,12,27,28,100,,31,21,257,,17,19,120,,13,10,227,*7C
$GPRMC,160358.000,A,3306.5427,S,06418.1565,W,2.20,109.61,081124,,,A*67
$GPGGA,160359.000,3306.5428,S,06418.1558,W,1,04,5.6,405.1,M,21.4,M,,0000*54
$GPGSA,A,3,23,29,10,28,,,,,,,,,6.4,5.6,3.1*30
$GPRMC,160359.000,A,3306.5428,S,06418.1558,W,2.23,108.35,081124,,,A*64
$GPGGA,160400.000,3306.5434,S,06418.1555,W,1,04,5.6,405.3,M,21.4,M,,0000*5D
$GPGSA,A,3,23,29,10,28,,,,,,,,,6.4,5.6,3.1*30
$GPRMC,160400.000,A,3306.5434,S,06418.1555,W,2.08,108.71,081124,,,A*66
$GPGGA,160401.000,3306.5432,S,06418.1543,W,1,04,5.6,405.5,M,21.4,M,,0000*5B
$GPGSA,A,3,23,29,10,28,,,,,,,,,6.4,5.6,3.1*30
$GPRMC,160401.000,A,3306.5432,S,06418.1543,W,2.19,108.08,081124,,,A*68
$GPGGA,160402.000,3306.5434,S,06418.1534,W,1,04,5.6,406.0,M,21.4,M,,0000*58
$GPGSA,A,3,23,29,10,28,,,,,,,,,6.4,5.6,3.1*30
$GPRMC,160402.000,A,3306.5434,S,06418.1534,W,2.20,107.62,081124,,,A*64
$GPGGA,160403.000,3306.5437,S,06418.1523,W,1,04,5.6,406.5,M,21.4,M,,0000*59
$GPGSA,A,3,23,29,10,28,,,,,,,,,6.4,5.6,3.1*30
$GPGSV,3,1,12,23,56,032,34,29,32,096,14,10,24,354,27,28,09,328,14*73
$GPGSV,3,2,12,25,13,027,04,32,77,078,,16,66,140,,12,38,315,*7C
$GPGSV,3,3,12,27,28,100,,31,21,257,,17,19,120,,13,10,227,*7C
$GPRMC,160403.000,A,3306.5437,S,06418.1523,W,2.30,106.87,081124,,,A*6B
$GPGGA,160404.000,3306.5435,S,06418.1511,W,1,04,5.6,406.9,M,21.4,M,,0000*51
$GPGSA,A,3,23,29,10,28,,,,,,,,,6.4,5.6,3.1*30
$GPRMC,160404.000,A,3306.5435,S,06418.1511,W,2.42,105.28,081124,,,A*6C
$GPGGA,160405.000,3306.5431,S,06418.1498,W,1,04,5.6,407.1,M,21.4,M,,0000*5D
$GPGSA,A,3,23,29,10,28,,,,,,,,,6.4,5.6,3.1*30
$GPRMC,160405.000,A,3306.5431,S,06418.1498,W,2.44,102.63,081124,,,A*67
$GPGGA,160406.000,3306.5424,S,06418.1482,W,1,05,2.4,407.3,M,21.4,M,,0000*57
$GPGSA,A,3,23,29,10,25,28,,,,,,,,3.2,2.4,2.2*33
$GPRMC,160406.000,A,3306.5424,S,06418.1482,W,2.83,96.65,081124,,,A*5A
$GPGGA,160407.000,3306.5427,S,06418.1474,W,1,05,2.4,407.5,M,21.4,M,,0000*5A
$GPGSA,A,3,23,29,10,25,28,,,,,,,,3.2,2.4,2.2*33
$GPRMC,160407.000,A,3306.5427,S,06418.1474,W,2.72,94.14,081124,,,A*5B
$GPGGA,160408.000,3306.5425,S,06418.1466,W,1,05,2.4,407.7,M,21.4,M,,0000*56
$GPGSA,A,3,23,29,10,25,28,,,,,,,,3.2,2.4,2.2*33
$GPGSV,3,1,12,23,56,032,23,29,32,096,18,10,24,354,21,25,13,027,19*78
$GPGSV,3,2,12,28,09,328,13,32,77,078,,16,66,140,,12,38,315,*70
$GPGSV,3,3,12,27,28,100,,31,21,257,,17,19,120,,13,10,227,*7C
$GPRMC,160408.000,A,3306.5425,S,06418.1466,W,2.35,92.12,081124,,,A*56
$GPGGA,160409.000,3306.5423,S,06418.1456,W,1,05,2.4,407.7,M,21.4,M,,0000*52
$GPGSA,A,3,23,29,10,25,28,,,,,,,,3.2,2.4,2.2*33
$GPRMC,160409.000,A,3306.5423,S,06418.1456,W,2.50,90.33,081124,,,A*50
$GPGGA,160410.000,3306.5425,S,06418.1448,W,1,05,2.4,407.8,M,21.4,M,,0000*5C
$GPGSA,A,3,23,29,10,25,28,,,,,,,,3.2,2.4,2.2*33
$GPRMC,160410.000,A,3306.5425,S,06418.1448,W,2.68,86.68,081124,,,A*53
$GPGGA,160411.000,3306.5427,S,06418.1444,W,1,05,2.4,407.9,M,21.4,M,,0000*52
$GPGSA,A,3,23,29,10,25,28,,,,,,,,3.2,2.4,2.2*33
$GPRMC,160411.000,A,3306.5427,S,06418.1444,W,2.41,84.37,081124,,,A*5F
$GPGGA,160412.000,3306.5434,S,06418.1445,W,1,05,2.4,408.2,M,21.4,M,,0000*56
$GPGSA,A,3,23,29,10,25,28,,,,,,,,3.2,2.4,2.2*33
$GPRMC,160412.000,A,3306.5434,S,06418.1445,W,1.93,83.82,081124,,,A*5A
$GPGGA,160413.000,3306.5437,S,06418.1442,W,1,05,2.4,408.7,M,21.4,M,,0000*56
$GPGSA,A,3,23,29,10,25,28,,,,,,,,3.2,2.4,2.2*33
$GPGSV,3,1,12,23,56,032,33,29,32,096,22,10,24,354,22,25,13,027,19*73
$GPGSV,3,2,12,28,09,328,14,32,77,078,,16,66,140,,12,38,315,*77
$GPGSV,3,3,12,27,28,100,,31,21,257,,17,19,120,,13,10,227,*7C
$GPRMC,160413.000,A,3306.5437,S,06418.1442,W,2.02,82.96,081124,,,A*50
$GPGGA,160414.000,3306.5435,S,06418.1437,W,1,05,2.4,409.2,M,21.4,M,,0000*55
$GPGSA,A,3,23,29,10,25,28,,,,,,,,3.2,2.4,2.2*33
$GPRMC,160414.000,A,3306.5435,S,06418.1437,W,2.17,81.38,081124,,,A*54
$GPGGA,160415.000,3306.5440,S,06418.1436,W,1,05,2.4,409.7,M,21.4,M,,0000*52
$GPGSA,A,3,23,29,10,25,28,,,,,,,,3.2,2.4,2.2*33
$GPRMC,160415.000,A,3306.5440,S,06418.1436,W,2.20,80.48,081124,,,A*54
$GPGGA,160416.000,3306.5459,S,06418.1437,W,1,05,2.4,411.0,M,21.4,M,,0000*56
$GPGSA,A,3,23,29,10,25,28,,,,,,,,3.2,2.4,2.2*33
$GPRMC,160416.000,A,3306.5459,S,06418.1437,W,2.24,83.42,081124,,,A*53
$GPGGA,160417.000,3306.5474,S,06418.1434,W,1,05,2.4,412.2,M,21.4,M,,0000*5A
$GPGSA,A,3,23,29,10,25,28,,,,,,,,3.2,2.4,2.2*33
$GPRMC,160417.000,A,3306.5474,S,06418.1434,W,2.61,89.53,081124,,,A*55
$GPGGA,160418.000,3306.5486,S,06418.1432,W,1,05,2.4,413.2,M,21.4,M,,0000*5F
$GPGSA,A,3,23,29,10,25,28,,,,,,,,3.2,2.4,2.2*33
$GPGSV,3,1,12,23,56,032,33,29,32,096,21,10,24,354,29,25,13,027,19*7B
$GPGSV,3,2,12,28,09,328,13,32,77,078,,16,66,140,,12,38,315,*70
$GPGSV,3,3,12,27,28,100,,31,21,257,,17,19,120,,13,10,227,*7C
$GPRMC,160418.000,A,3306.5486,S,06418.1432,W,1.98,91.93,081124,,,A*51
$GPGGA,160419.000,3306.5490,S,06418.1427,W,1,05,2.4,413.5,M,21.4,M,,0000*5A
$GPGSA,A,3,23,29,10,25,28,,,,,,,,3.2,2.4,2.2*33
$GPRMC,160419.000,A,3306.5490,S,06418.1427,W,1.85,92.99,081124,,,A*56
$GPGGA,160420.000,3306.5492,S,06418.1420,W,1,05,2.4,413.9,M,21.4,M,,0000*59
$GPGSA,A,3,23,29,10,25,28,,,,,,,,3.2,2.4,2.2*33
$GPRMC,160420.000,A,3306.5492,S,06418.1420,W,1.77,92.10,081124,,,A*55
$GPGGA,160421.000,3306.5499,S,06418.1419,W,1,05,2.4,414.1,M,21.4,M,,0000*56
$GPGSA,A,3,23,29,10,25,28,,,,,,,,3.2,2.4,2.2*33
$GPRMC,160421.000,A,3306.5499,S,06418.1419,W,1.77,92.15,081124,,,A*50
$GPGGA,160422.000,3306.5508,S,06418.1419,W,1,05,2.4,414.2,M,21.4,M,,0000*5F
$GPGSA,A,3,23,29,10,25,28,,,,,,,,3.2,2.4,2.2*33
$GPRMC,160422.000,A,3306.5508,S,06418.1419,W,1.49,92.69,081124,,,A*5C
$GPGGA,160423.000,3306.5517,S,06418.1416,W,1,05,2.4,414.3,M,21.4,M,,0000*5E
$GPGSA,A,3,23,29,10,25,28,,,,,,,,3.2,2.4,2.2*33
$GPGSV,3,1,12,23,56,032,25,29,32,096,25,10,24,354,25,25,13,027,19*74
$GPGSV,3,2,12,28,09,328,13,32,77,078,,16,66,140,,12,38,315,*70
$GPGSV,3,3,12,27,28,100,,31,21,257,,17,19,120,,13,10,227,*7C
$GPRMC,160423.000,A,3306.5517,S,06418.1416,W,1.62,94.01,081124,,,A*5D
$GPGGA,160424.000,3306.5523,S,06418.1414,W,1,05,2.4,414.6,M,21.4,M,,0000*59
$GPGSA,A,3,23,29,10,25,28,,,,,,,,3.2,2.4,2.2*33
$GPRMC,160424.000,A,3306.5523,S,06418.1414,W,1.50,95.13,081124,,,A*5C
$GPGGA,160425.000,3306.5530,S,06418.1410,W,1,05,2.4,414.8,M,21.4,M,,0000*50
$GPGSA,A,3,23,29,10,25,28,,,,,,,,3.2,2.4,2.2*33
$GPRMC,160425.000,A,3306.5530,S,06418.1410,W,1.93,97.28,081124,,,A*5E
$GPGGA,160426.000,3306.5536,S,06418.1406,W,1,05,2.4,415.2,M,21.4,M,,0000*59
$GPGSA,A,3,23,29,10,25,28,,,,,,,,3.2,2.4,2.2*33
$GPRMC,160426.000,A,3306.5536,S,06418.1406,W,2.02,99.54,081124,,,A*52
$GPGGA,160427.000,3306.5541,S,06418.1403,W,1,05,2.4,415.3,M,21.4,M,,0000*5C
$GPGSA,A,3,23,29,10,25,28,,,,,,,,3.2,2.4,2.2*33
$GPRMC,160427.000,A,3306.5541,S,06418.1403,W,1.98,101.59,081124,,,A*6B
$GPGGA,160428.000,3306.5549,S,06418.1401,W,1,04,4.9,415.7,M,21.4,M,,0000*57
$GPGSA,A,3,23,29,10,25,,,,,,,,,6.1,4.9,3.5*32
$GPGSV,3,1,12,23,56,032,37,29,32,096,28,10,24,354,17,25,13,027,25*74
$GPGSV,3,2,12,32,77,078,,16,66,140,,12,38,315,,27,28,100,*76
$GPGSV,3,3,12,31,21,257,,17,19,120,,13,10,227,,28,09,328,*78
$GPRMC,160428.000,A,3306.5549,S,06418.1401,W,2.24,103.65,081124,,,A*67
$GPGGA,160429.000,3306.5557,S,06418.1401,W,1,04,4.9,415.9,M,21.4,M,,0000*57
$GPGSA,A,3,23,29,10,25,,,,,,,,,6.1,4.9,3.5*32
$GPRMC,160429.000,A,3306.5557,S,06418.1401,W,2.27,107.66,081124,,,A*6D
$GPGGA,160430.000,3306.5571,S,06418.1407,W,1,04,4.9,416.3,M,21.4,M,,0000*54
$GPGSA,A,3,23,29,10,25,,,,,,,,,6.1,4.9,3.5*32
$GPRMC,160430.000,A,3306.5571,S,06418.1407,W,2.25,111.99,081124,,,A*62
$GPGGA,160431.000,3306.5578,S,06418.1401,W,1,04,4.9,417.0,M,21.4,M,,0000*58
$GPGSA,A,3,23,29,10,25,,,,,,,,,6.1,4.9,3.5*32
$GPRMC,160431.000,A,3306.5578,S,06418.1401,W,2.37,113.96,081124,,,A*62
$GPGGA,160432.000,3306.5589,S,06418.1400,W,1,04,4.9,417.6,M,21.4,M,,0000*52
$GPGSA,A,3,23,29,10,25,,,,,,,,,6.1,4.9,3.5*32
$GPRMC,160432.000,A,3306.5589,S,06418.1400,W,2.40,117.74,081124,,,A*66
$GPGGA,160433.000,3306.5592,S,06418.1390,W,1,04,4.9,418.0,M,21.4,M,,0000*5E
$GPGSA,A,3,23,29,10,25,,,,,,,,,6.1,4.9,3.5*32
$GPGSV,3,1,12,23,56,032,36,29,32,096,28,10,24,354,28,25,13,027,21*7D
$GPGSV,3,2,12,32,77,078,,16,66,140,,12,38,315,,27,28,100,*76
$GPGSV,3,3,12,31,21,257,,17,19,120,,13,10,227,,28,09,328,*78
$GPRMC,160433.000,A,3306.5592,S,06418.1390,W,2.44,118.76,081124,,,A*6A
$GPGGA,160434.000,3306.5601,S,06418.1388,W,1,04,5.0,418.5,M,21.4,M,,0000*54
$GPGSA,A,3,23,29,10,25,,,,,,,,,6.1,5.0,3.5*3A
$GPRMC,160434.000,A,3306.5601,S,06418.1388,W,2.25,121.63,081124,,,A*64
